{
"type": "FeatureCollection",
"name": "hotosm_tha_waterways_points_geojson",
"features": [
{ "type": "Feature", "properties": { "name": "น้ำตกลาดขี้ลิง", "name:en": "Lardwanorn Waterfall", "waterway": "waterfall", "covered": null, "width": null, "depth": null, "layer": null, "blockage": null, "tunnel": null, "natural": null, "water": null, "source": null, "name:th": null, "osm_id": 5477186721, "osm_type": "nodes" }, "geometry": { "type": "Point", "coordinates": [ 99.9652279, 9.5013508 ] } },
{ "type": "Feature", "properties": { "name": null, "name:en": null, "waterway": "weir", "covered": null, "width": null, "depth": null, "layer": null, "blockage": null, "tunnel": null, "natural": null, "water": null, "source": null, "name:th": null, "osm_id": 12538992577, "osm_type": "nodes" }, "geometry": { "type": "Point", "coordinates": [ 100.5672752, 13.6611315 ] } },
{ "type": "Feature", "properties": { "name": null, "name:en": null, "waterway": "weir", "covered": null, "width": null, "depth": null, "layer": null, "blockage": null, "tunnel": null, "natural": null, "water": null, "source": null, "name:th": null, "osm_id": 8746490438, "osm_type": "nodes" }, "geometry": { "type": "Point", "coordinates": [ 100.571216, 13.6648571 ] } },
{ "type": "Feature", "properties": { "name": null, "name:en": null, "waterway": "dam", "covered": null, "width": null, "depth": null, "layer": null, "blockage": null, "tunnel": null, "natural": null, "water": null, "source": null, "name:th": null, "osm_id": 5894238685, "osm_type": "nodes" }, "geometry": { "type": "Point", "coordinates": [ 100.013967, 9.750364 ] } },
{ "type": "Feature", "properties": { "name": "Ko Tha Waterfall", "name:en": null, "waterway": "waterfall", "covered": null, "width": null, "depth": null, "layer": null, "blockage": null, "tunnel": null, "natural": null, "water": null, "source": null, "name:th": "บ้านโข๊ทะ Ko Tha Waterfall", "osm_id": 1439861426, "osm_type": "nodes" }, "geometry": { "type": "Point", "coordinates": [ 98.8007037, 15.8551554 ] } },
{ "type": "Feature", "properties": { "name": "Tan Rua", "name:en": null, "waterway": "waterfall", "covered": null, "width": null, "depth": null, "layer": null, "blockage": null, "tunnel": null, "natural": null, "water": null, "source": null, "name:th": null, "osm_id": 5389387921, "osm_type": "nodes" }, "geometry": { "type": "Point", "coordinates": [ 99.9925035, 9.5350607 ] } },
{ "type": "Feature", "properties": { "name": null, "name:en": null, "waterway": "weir", "covered": null, "width": null, "depth": null, "layer": null, "blockage": null, "tunnel": null, "natural": null, "water": null, "source": null, "name:th": null, "osm_id": 9266419462, "osm_type": "nodes" }, "geometry": { "type": "Point", "coordinates": [ 102.5015763, 15.2288348 ] } },
{ "type": "Feature", "properties": { "name": null, "name:en": null, "waterway": "waterfall", "covered": null, "width": null, "depth": null, "layer": null, "blockage": null, "tunnel": null, "natural": null, "water": null, "source": null, "name:th": null, "osm_id": 11374878272, "osm_type": "nodes" }, "geometry": { "type": "Point", "coordinates": [ 100.9307181, 12.766119 ] } },
{ "type": "Feature", "properties": { "name": null, "name:en": null, "waterway": "weir", "covered": null, "width": null, "depth": null, "layer": null, "blockage": null, "tunnel": null, "natural": null, "water": null, "source": null, "name:th": null, "osm_id": 12538915276, "osm_type": "nodes" }, "geometry": { "type": "Point", "coordinates": [ 100.5821293, 13.6765517 ] } },
{ "type": "Feature", "properties": { "name": null, "name:en": null, "waterway": null, "covered": null, "width": null, "depth": null, "layer": null, "blockage": null, "tunnel": null, "natural": "wetland", "water": null, "source": null, "name:th": null, "osm_id": 11371107674, "osm_type": "nodes" }, "geometry": { "type": "Point", "coordinates": [ 102.8525225, 17.4152332 ] } },
{ "type": "Feature", "properties": { "name": "น้ำตกป่าละอู", "name:en": "Pa La-U Waterfall", "waterway": "waterfall", "covered": null, "width": null, "depth": null, "layer": null, "blockage": null, "tunnel": null, "natural": null, "water": null, "source": null, "name:th": "น้ำตกป่าละอู", "osm_id": 2452260190, "osm_type": "nodes" }, "geometry": { "type": "Point", "coordinates": [ 99.4590914, 12.5368466 ] } },
{ "type": "Feature", "properties": { "name": "ขุนกรฌ์ (ฝนตกปิด)", "name:en": "Khun Korn Waterfall (close when rain)", "waterway": "waterfall", "covered": null, "width": null, "depth": null, "layer": null, "blockage": null, "tunnel": null, "natural": null, "water": null, "source": null, "name:th": "ขุนกรฌ์ (ฝนตกปิด) водопад Чианграй", "osm_id": 5499015449, "osm_type": "nodes" }, "geometry": { "type": "Point", "coordinates": [ 99.6160072, 19.8826619 ] } },
{ "type": "Feature", "properties": { "name": null, "name:en": null, "waterway": "lock_gate", "covered": null, "width": null, "depth": null, "layer": null, "blockage": null, "tunnel": null, "natural": null, "water": null, "source": null, "name:th": null, "osm_id": 3219714367, "osm_type": "nodes" }, "geometry": { "type": "Point", "coordinates": [ 99.788474, 19.9057046 ] } },
{ "type": "Feature", "properties": { "name": "Nok Noi Waterfall", "name:en": null, "waterway": "waterfall", "covered": null, "width": null, "depth": null, "layer": null, "blockage": null, "tunnel": null, "natural": null, "water": null, "source": null, "name:th": null, "osm_id": 11369889371, "osm_type": "nodes" }, "geometry": { "type": "Point", "coordinates": [ 101.1070311, 6.2778827 ] } },
{ "type": "Feature", "properties": { "name": null, "name:en": null, "waterway": "waterfall", "covered": null, "width": null, "depth": null, "layer": null, "blockage": null, "tunnel": null, "natural": null, "water": null, "source": null, "name:th": null, "osm_id": 11369889377, "osm_type": "nodes" }, "geometry": { "type": "Point", "coordinates": [ 101.114029, 6.2660212 ] } },
{ "type": "Feature", "properties": { "name": "ชั้นที่๕ \"เบื่อไม่ลจ\"", "name:en": "Level 5: Buar Mai Long", "waterway": "waterfall", "covered": null, "width": null, "depth": null, "layer": null, "blockage": null, "tunnel": null, "natural": null, "water": null, "source": null, "name:th": "ชั้นที่๕ \"เบื่อไม่ลจ\"", "osm_id": 1036607978, "osm_type": "nodes" }, "geometry": { "type": "Point", "coordinates": [ 99.1424111, 14.3618609 ] } },
{ "type": "Feature", "properties": { "name": null, "name:en": null, "waterway": "waterfall", "covered": null, "width": null, "depth": null, "layer": null, "blockage": null, "tunnel": null, "natural": null, "water": null, "source": null, "name:th": null, "osm_id": 11084964058, "osm_type": "nodes" }, "geometry": { "type": "Point", "coordinates": [ 98.7120917, 14.6724927 ] } },
{ "type": "Feature", "properties": { "name": null, "name:en": null, "waterway": "lock_gate", "covered": null, "width": null, "depth": null, "layer": null, "blockage": null, "tunnel": null, "natural": null, "water": null, "source": "Bing", "name:th": null, "osm_id": 3006481260, "osm_type": "nodes" }, "geometry": { "type": "Point", "coordinates": [ 100.9868833, 13.480831 ] } },
{ "type": "Feature", "properties": { "name": "Klongphrao waterfall", "name:en": null, "waterway": "waterfall", "covered": null, "width": null, "depth": null, "layer": null, "blockage": null, "tunnel": null, "natural": null, "water": null, "source": null, "name:th": null, "osm_id": 7232117885, "osm_type": "nodes" }, "geometry": { "type": "Point", "coordinates": [ 98.9647283, 10.0403774 ] } },
{ "type": "Feature", "properties": { "name": null, "name:en": "Huai Mae Khamin Waterfall Level 4, Chat Kaeo", "waterway": "waterfall", "covered": null, "width": null, "depth": null, "layer": null, "blockage": null, "tunnel": null, "natural": null, "water": null, "source": null, "name:th": null, "osm_id": 8629136532, "osm_type": "nodes" }, "geometry": { "type": "Point", "coordinates": [ 98.986428, 14.6401669 ] } },
{ "type": "Feature", "properties": { "name": null, "name:en": "Nang Kruan Waterfall Level 2", "waterway": "waterfall", "covered": null, "width": null, "depth": null, "layer": null, "blockage": null, "tunnel": null, "natural": null, "water": null, "source": null, "name:th": null, "osm_id": 8629136531, "osm_type": "nodes" }, "geometry": { "type": "Point", "coordinates": [ 98.7245927, 14.9058815 ] } },
{ "type": "Feature", "properties": { "name": null, "name:en": "Nang Kruan Waterfall Level 1", "waterway": "waterfall", "covered": null, "width": null, "depth": null, "layer": null, "blockage": null, "tunnel": null, "natural": null, "water": null, "source": null, "name:th": null, "osm_id": 8629136628, "osm_type": "nodes" }, "geometry": { "type": "Point", "coordinates": [ 98.7255982, 14.9056692 ] } },
{ "type": "Feature", "properties": { "name": "Song Phraek Waterfall", "name:en": null, "waterway": "waterfall", "covered": null, "width": null, "depth": null, "layer": null, "blockage": null, "tunnel": null, "natural": null, "water": null, "source": null, "name:th": null, "osm_id": 2678390257, "osm_type": "nodes" }, "geometry": { "type": "Point", "coordinates": [ 98.8732336, 10.4391745 ] } },
{ "type": "Feature", "properties": { "name": null, "name:en": null, "waterway": "weir", "covered": null, "width": null, "depth": null, "layer": null, "blockage": null, "tunnel": null, "natural": null, "water": null, "source": null, "name:th": null, "osm_id": 4589446730, "osm_type": "nodes" }, "geometry": { "type": "Point", "coordinates": [ 99.894288, 18.1163187 ] } },
{ "type": "Feature", "properties": { "name": "Kaochon waterfall", "name:en": null, "waterway": "waterfall", "covered": null, "width": null, "depth": null, "layer": null, "blockage": null, "tunnel": null, "natural": null, "water": null, "source": null, "name:th": "นำ้ตกเก้าโจน", "osm_id": 2069590686, "osm_type": "nodes" }, "geometry": { "type": "Point", "coordinates": [ 99.2392105, 13.5249509 ] } },
{ "type": "Feature", "properties": { "name": "Khirilom Waterfall", "name:en": null, "waterway": "waterfall", "covered": null, "width": null, "depth": null, "layer": null, "blockage": null, "tunnel": null, "natural": null, "water": null, "source": "Gpsmap 62sc Parie 2014", "name:th": null, "osm_id": 2633486846, "osm_type": "nodes" }, "geometry": { "type": "Point", "coordinates": [ 99.4782682, 11.4909732 ] } },
{ "type": "Feature", "properties": { "name": "Khirilom Waterfall", "name:en": null, "waterway": "waterfall", "covered": null, "width": null, "depth": null, "layer": null, "blockage": null, "tunnel": null, "natural": null, "water": null, "source": "Gpsmap 62sc Parie 2014", "name:th": null, "osm_id": 2633486847, "osm_type": "nodes" }, "geometry": { "type": "Point", "coordinates": [ 99.4697984, 11.494094 ] } },
{ "type": "Feature", "properties": { "name": "น้ำตก​ วัง​ ไทร​", "name:en": "Wang Sai Waterfall", "waterway": "waterfall", "covered": null, "width": null, "depth": null, "layer": null, "blockage": null, "tunnel": null, "natural": null, "water": null, "source": null, "name:th": null, "osm_id": 6253334785, "osm_type": "nodes" }, "geometry": { "type": "Point", "coordinates": [ 99.9837978, 9.7907353 ] } },
{ "type": "Feature", "properties": { "name": "น้ำตกวังไทร", "name:en": "Wang Sai Waterfall", "waterway": "waterfall", "covered": null, "width": null, "depth": null, "layer": null, "blockage": null, "tunnel": null, "natural": null, "water": null, "source": null, "name:th": null, "osm_id": 2515567261, "osm_type": "nodes" }, "geometry": { "type": "Point", "coordinates": [ 99.9820125, 9.7915596 ] } },
{ "type": "Feature", "properties": { "name": null, "name:en": null, "waterway": "lock_gate", "covered": null, "width": null, "depth": null, "layer": null, "blockage": null, "tunnel": null, "natural": null, "water": null, "source": null, "name:th": null, "osm_id": 3202475630, "osm_type": "nodes" }, "geometry": { "type": "Point", "coordinates": [ 99.7591865, 18.3869552 ] } },
{ "type": "Feature", "properties": { "name": null, "name:en": null, "waterway": null, "covered": null, "width": null, "depth": null, "layer": null, "blockage": null, "tunnel": null, "natural": "water", "water": null, "source": null, "name:th": null, "osm_id": 2521130301, "osm_type": "nodes" }, "geometry": { "type": "Point", "coordinates": [ 99.5764222, 11.5555647 ] } },
{ "type": "Feature", "properties": { "name": null, "name:en": null, "waterway": null, "covered": null, "width": null, "depth": null, "layer": null, "blockage": null, "tunnel": null, "natural": "water", "water": null, "source": null, "name:th": null, "osm_id": 2521130306, "osm_type": "nodes" }, "geometry": { "type": "Point", "coordinates": [ 99.57556, 11.5562694 ] } },
{ "type": "Feature", "properties": { "name": null, "name:en": null, "waterway": null, "covered": null, "width": null, "depth": null, "layer": null, "blockage": null, "tunnel": null, "natural": "water", "water": null, "source": null, "name:th": null, "osm_id": 2543094606, "osm_type": "nodes" }, "geometry": { "type": "Point", "coordinates": [ 99.5763287, 11.5555539 ] } },
{ "type": "Feature", "properties": { "name": null, "name:en": null, "waterway": null, "covered": null, "width": null, "depth": null, "layer": null, "blockage": null, "tunnel": null, "natural": "water", "water": null, "source": null, "name:th": null, "osm_id": 2543094607, "osm_type": "nodes" }, "geometry": { "type": "Point", "coordinates": [ 99.5765915, 11.5556766 ] } },
{ "type": "Feature", "properties": { "name": null, "name:en": null, "waterway": null, "covered": null, "width": null, "depth": null, "layer": null, "blockage": null, "tunnel": null, "natural": "water", "water": null, "source": null, "name:th": null, "osm_id": 2583542126, "osm_type": "nodes" }, "geometry": { "type": "Point", "coordinates": [ 99.5334462, 11.5363019 ] } },
{ "type": "Feature", "properties": { "name": "อ่าวหินงาม", "name:en": "Ao Hin Ngam", "waterway": null, "covered": null, "width": null, "depth": null, "layer": null, "blockage": null, "tunnel": null, "natural": "bay", "water": null, "source": null, "name:th": null, "osm_id": 4839223431, "osm_type": "nodes" }, "geometry": { "type": "Point", "coordinates": [ 99.9956592, 9.7972817 ] } },
{ "type": "Feature", "properties": { "name": "อ่าวหาดทองหลาง", "name:en": "Ao Hat Thonglang", "waterway": null, "covered": null, "width": null, "depth": null, "layer": null, "blockage": null, "tunnel": null, "natural": "bay", "water": null, "source": null, "name:th": null, "osm_id": 4810424730, "osm_type": "nodes" }, "geometry": { "type": "Point", "coordinates": [ 99.9875419, 9.7997682 ] } },
{ "type": "Feature", "properties": { "name": "Kra Poak national park. Waterfall", "name:en": null, "waterway": "waterfall", "covered": null, "width": null, "depth": null, "layer": null, "blockage": null, "tunnel": null, "natural": null, "water": null, "source": null, "name:th": null, "osm_id": 2617071422, "osm_type": "nodes" }, "geometry": { "type": "Point", "coordinates": [ 99.212706, 10.7439446 ] } },
{ "type": "Feature", "properties": { "name": "Sai Khu Waterfall", "name:en": null, "waterway": "waterfall", "covered": null, "width": null, "depth": null, "layer": null, "blockage": null, "tunnel": null, "natural": null, "water": null, "source": "Gpsmap62se Parie 2013", "name:th": null, "osm_id": 2569313096, "osm_type": "nodes" }, "geometry": { "type": "Point", "coordinates": [ 99.3325933, 11.246363 ] } },
{ "type": "Feature", "properties": { "name": "Path to waterfall", "name:en": null, "waterway": "waterfall", "covered": null, "width": null, "depth": null, "layer": null, "blockage": null, "tunnel": null, "natural": null, "water": null, "source": null, "name:th": null, "osm_id": 5686939021, "osm_type": "nodes" }, "geometry": { "type": "Point", "coordinates": [ 98.4277761, 15.2739494 ] } },
{ "type": "Feature", "properties": { "name": null, "name:en": "Takhianthong Waterfall", "waterway": "waterfall", "covered": null, "width": null, "depth": null, "layer": null, "blockage": null, "tunnel": null, "natural": null, "water": null, "source": null, "name:th": null, "osm_id": 6231425585, "osm_type": "nodes" }, "geometry": { "type": "Point", "coordinates": [ 98.4526687, 15.3028682 ] } },
{ "type": "Feature", "properties": { "name": "อ่าวแม่หาด", "name:en": "Ao Mae Hat", "waterway": null, "covered": null, "width": null, "depth": null, "layer": null, "blockage": null, "tunnel": null, "natural": "bay", "water": null, "source": null, "name:th": null, "osm_id": 3582426704, "osm_type": "nodes" }, "geometry": { "type": "Point", "coordinates": [ 99.8212483, 10.0866145 ] } },
{ "type": "Feature", "properties": { "name": null, "name:en": null, "waterway": "weir", "covered": null, "width": null, "depth": null, "layer": null, "blockage": null, "tunnel": null, "natural": null, "water": null, "source": null, "name:th": null, "osm_id": 8703670098, "osm_type": "nodes" }, "geometry": { "type": "Point", "coordinates": [ 100.5844509, 14.3747431 ] } },
{ "type": "Feature", "properties": { "name": "Pu Ya Ban waterfall", "name:en": null, "waterway": "waterfall", "covered": null, "width": null, "depth": null, "layer": null, "blockage": null, "tunnel": null, "natural": null, "water": null, "source": null, "name:th": null, "osm_id": 1163006356, "osm_type": "nodes" }, "geometry": { "type": "Point", "coordinates": [ 98.6701853, 10.0650483 ] } },
{ "type": "Feature", "properties": { "name": null, "name:en": null, "waterway": "weir", "covered": null, "width": null, "depth": null, "layer": null, "blockage": null, "tunnel": null, "natural": null, "water": null, "source": null, "name:th": null, "osm_id": 4794330321, "osm_type": "nodes" }, "geometry": { "type": "Point", "coordinates": [ 100.1435259, 14.3580196 ] } },
{ "type": "Feature", "properties": { "name": "อ่าวผักบุ้ง", "name:en": "Ao Phakbung", "waterway": null, "covered": null, "width": null, "depth": null, "layer": null, "blockage": null, "tunnel": null, "natural": "bay", "water": null, "source": null, "name:th": null, "osm_id": 3582426709, "osm_type": "nodes" }, "geometry": { "type": "Point", "coordinates": [ 99.8154269, 10.0774418 ] } },
{ "type": "Feature", "properties": { "name": "อ่าวลึก", "name:en": "Ao Luek", "waterway": null, "covered": null, "width": null, "depth": null, "layer": null, "blockage": null, "tunnel": null, "natural": "bay", "water": null, "source": null, "name:th": null, "osm_id": 859428681, "osm_type": "nodes" }, "geometry": { "type": "Point", "coordinates": [ 99.8410882, 10.0710681 ] } },
{ "type": "Feature", "properties": { "name": "อ่าวหลังค่าย", "name:en": "Ao Lang Khai", "waterway": null, "covered": null, "width": null, "depth": null, "layer": null, "blockage": null, "tunnel": null, "natural": "bay", "water": null, "source": null, "name:th": null, "osm_id": 3582426702, "osm_type": "nodes" }, "geometry": { "type": "Point", "coordinates": [ 99.8482298, 10.0791454 ] } },
{ "type": "Feature", "properties": { "name": null, "name:en": null, "waterway": null, "covered": null, "width": null, "depth": null, "layer": null, "blockage": null, "tunnel": null, "natural": "water", "water": "reservoir", "source": null, "name:th": null, "osm_id": 11198932787, "osm_type": "nodes" }, "geometry": { "type": "Point", "coordinates": [ 101.0462492, 13.0360327 ] } },
{ "type": "Feature", "properties": { "name": null, "name:en": null, "waterway": "waterfall", "covered": null, "width": null, "depth": null, "layer": null, "blockage": null, "tunnel": null, "natural": null, "water": null, "source": null, "name:th": null, "osm_id": 4583396309, "osm_type": "nodes" }, "geometry": { "type": "Point", "coordinates": [ 98.7564657, 15.9244779 ] } },
{ "type": "Feature", "properties": { "name": "น้ำตกทีลอซู", "name:en": "Thi Lo Su Waterfall", "waterway": "waterfall", "covered": null, "width": null, "depth": null, "layer": null, "blockage": null, "tunnel": null, "natural": null, "water": null, "source": null, "name:th": "น้ำตกทีลอซู", "osm_id": 1539589389, "osm_type": "nodes" }, "geometry": { "type": "Point", "coordinates": [ 98.753057, 15.9265444 ] } },
{ "type": "Feature", "properties": { "name": "Kaeng Koyai Rapids", "name:en": null, "waterway": "rapids", "covered": null, "width": null, "depth": null, "layer": null, "blockage": null, "tunnel": null, "natural": null, "water": null, "source": null, "name:th": null, "osm_id": 939007534, "osm_type": "nodes" }, "geometry": { "type": "Point", "coordinates": [ 99.3687909, 15.9183855 ] } },
{ "type": "Feature", "properties": { "name": null, "name:en": null, "waterway": "weir", "covered": null, "width": null, "depth": null, "layer": null, "blockage": null, "tunnel": null, "natural": null, "water": null, "source": null, "name:th": null, "osm_id": 2143408317, "osm_type": "nodes" }, "geometry": { "type": "Point", "coordinates": [ 99.7992787, 20.1165686 ] } },
{ "type": "Feature", "properties": { "name": "น้ำตกดอยโตน", "name:en": "Doi Tone Waterfall", "waterway": "waterfall", "covered": null, "width": null, "depth": null, "layer": null, "blockage": null, "tunnel": null, "natural": null, "water": null, "source": null, "name:th": "น้ำตกดอยโตน", "osm_id": 3497433898, "osm_type": "nodes" }, "geometry": { "type": "Point", "coordinates": [ 99.3566392, 18.9240901 ] } },
{ "type": "Feature", "properties": { "name": "น้ำตกมณฑาธาร", "name:en": "Mon Tha Than Waterfalls", "waterway": "waterfall", "covered": null, "width": null, "depth": null, "layer": null, "blockage": null, "tunnel": null, "natural": null, "water": null, "source": null, "name:th": "น้ำตกมณฑาธาร", "osm_id": 10083790350, "osm_type": "nodes" }, "geometry": { "type": "Point", "coordinates": [ 98.9239507, 18.8173968 ] } },
{ "type": "Feature", "properties": { "name": null, "name:en": null, "waterway": "lock_gate", "covered": null, "width": null, "depth": null, "layer": null, "blockage": null, "tunnel": null, "natural": null, "water": null, "source": null, "name:th": null, "osm_id": 4591440679, "osm_type": "nodes" }, "geometry": { "type": "Point", "coordinates": [ 99.0573603, 18.8958278 ] } },
{ "type": "Feature", "properties": { "name": null, "name:en": null, "waterway": "lock_gate", "covered": null, "width": null, "depth": null, "layer": null, "blockage": null, "tunnel": null, "natural": null, "water": null, "source": null, "name:th": null, "osm_id": 493255900, "osm_type": "nodes" }, "geometry": { "type": "Point", "coordinates": [ 100.5997507, 14.7802339 ] } },
{ "type": "Feature", "properties": { "name": null, "name:en": null, "waterway": null, "covered": null, "width": null, "depth": null, "layer": null, "blockage": null, "tunnel": null, "natural": "wetland", "water": null, "source": null, "name:th": null, "osm_id": 7071389147, "osm_type": "nodes" }, "geometry": { "type": "Point", "coordinates": [ 99.3687318, 15.9177821 ] } },
{ "type": "Feature", "properties": { "name": null, "name:en": null, "waterway": "sluice_gate", "covered": null, "width": null, "depth": null, "layer": null, "blockage": null, "tunnel": null, "natural": null, "water": null, "source": null, "name:th": null, "osm_id": 2270870971, "osm_type": "nodes" }, "geometry": { "type": "Point", "coordinates": [ 100.6205963, 14.1447506 ] } },
{ "type": "Feature", "properties": { "name": null, "name:en": null, "waterway": "lock_gate", "covered": null, "width": null, "depth": null, "layer": null, "blockage": null, "tunnel": null, "natural": null, "water": null, "source": null, "name:th": null, "osm_id": 3054186348, "osm_type": "nodes" }, "geometry": { "type": "Point", "coordinates": [ 99.6245872, 13.9542383 ] } },
{ "type": "Feature", "properties": { "name": null, "name:en": null, "waterway": "sluice_gate", "covered": null, "width": null, "depth": null, "layer": null, "blockage": null, "tunnel": null, "natural": null, "water": null, "source": null, "name:th": null, "osm_id": 3054186371, "osm_type": "nodes" }, "geometry": { "type": "Point", "coordinates": [ 99.6249286, 13.9554824 ] } },
{ "type": "Feature", "properties": { "name": "น้ำตกป่าละอูชั้นที่ 4", "name:en": "Level 4 of Pa La-U Waterfall", "waterway": "waterfall", "covered": null, "width": null, "depth": null, "layer": null, "blockage": null, "tunnel": null, "natural": null, "water": null, "source": null, "name:th": "น้ำตกป่าละอูชั้นที่ 4", "osm_id": 6854632705, "osm_type": "nodes" }, "geometry": { "type": "Point", "coordinates": [ 99.4573474, 12.5375805 ] } },
{ "type": "Feature", "properties": { "name": null, "name:en": null, "waterway": "weir", "covered": null, "width": null, "depth": null, "layer": null, "blockage": null, "tunnel": null, "natural": null, "water": null, "source": null, "name:th": null, "osm_id": 4723791499, "osm_type": "nodes" }, "geometry": { "type": "Point", "coordinates": [ 99.9786741, 12.4559444 ] } },
{ "type": "Feature", "properties": { "name": null, "name:en": null, "waterway": "boatyard", "covered": null, "width": null, "depth": null, "layer": null, "blockage": null, "tunnel": null, "natural": null, "water": null, "source": null, "name:th": null, "osm_id": 2533392078, "osm_type": "nodes" }, "geometry": { "type": "Point", "coordinates": [ 99.628145, 11.4870039 ] } },
{ "type": "Feature", "properties": { "name": null, "name:en": null, "waterway": "weir", "covered": null, "width": null, "depth": null, "layer": null, "blockage": null, "tunnel": null, "natural": null, "water": null, "source": "Bing", "name:th": null, "osm_id": 2131947065, "osm_type": "nodes" }, "geometry": { "type": "Point", "coordinates": [ 99.8436771, 13.9310511 ] } },
{ "type": "Feature", "properties": { "name": "อ่าวกล้วยเถื่อน", "name:en": "Ao Kluai Thuean", "waterway": null, "covered": null, "width": null, "depth": null, "layer": null, "blockage": null, "tunnel": null, "natural": "bay", "water": null, "source": null, "name:th": null, "osm_id": 3582426696, "osm_type": "nodes" }, "geometry": { "type": "Point", "coordinates": [ 99.8438607, 10.1199484 ] } },
{ "type": "Feature", "properties": { "name": "อ่าวหาดทรายรี", "name:en": "Ao Hat Sai Ri", "waterway": null, "covered": null, "width": null, "depth": null, "layer": null, "blockage": null, "tunnel": null, "natural": "bay", "water": null, "source": null, "name:th": null, "osm_id": 4791052126, "osm_type": "nodes" }, "geometry": { "type": "Point", "coordinates": [ 99.82561, 10.09683 ] } },
{ "type": "Feature", "properties": { "name": null, "name:en": "Cape Thian", "waterway": null, "covered": null, "width": null, "depth": "12", "layer": null, "blockage": null, "tunnel": null, "natural": "bay", "water": null, "source": null, "name:th": null, "osm_id": 3582426694, "osm_type": "nodes" }, "geometry": { "type": "Point", "coordinates": [ 99.855136, 10.0866532 ] } },
{ "type": "Feature", "properties": { "name": "อ่าวตาแสง", "name:en": "Ao Ta Saeng", "waterway": null, "covered": null, "width": null, "depth": null, "layer": null, "blockage": null, "tunnel": null, "natural": "bay", "water": null, "source": null, "name:th": null, "osm_id": 4791052127, "osm_type": "nodes" }, "geometry": { "type": "Point", "coordinates": [ 99.81732, 10.08132 ] } },
{ "type": "Feature", "properties": { "name": "อ่าววกตุ่ม", "name:en": "Ao Wok Tum", "waterway": null, "covered": null, "width": null, "depth": null, "layer": null, "blockage": null, "tunnel": null, "natural": "bay", "water": null, "source": null, "name:th": null, "osm_id": 4790594108, "osm_type": "nodes" }, "geometry": { "type": "Point", "coordinates": [ 99.972658, 9.7411439 ] } },
{ "type": "Feature", "properties": { "name": "อ่าวในวก", "name:en": "Ao Nai Wok", "waterway": null, "covered": null, "width": null, "depth": null, "layer": null, "blockage": null, "tunnel": null, "natural": "bay", "water": null, "source": null, "name:th": null, "osm_id": 4790594103, "osm_type": "nodes" }, "geometry": { "type": "Point", "coordinates": [ 99.9800961, 9.7171138 ] } },
{ "type": "Feature", "properties": { "name": null, "name:en": null, "waterway": "lock_gate", "covered": null, "width": null, "depth": null, "layer": null, "blockage": null, "tunnel": null, "natural": null, "water": null, "source": null, "name:th": null, "osm_id": 3054186339, "osm_type": "nodes" }, "geometry": { "type": "Point", "coordinates": [ 99.6261529, 13.9536088 ] } },
{ "type": "Feature", "properties": { "name": null, "name:en": null, "waterway": "weir", "covered": null, "width": null, "depth": null, "layer": null, "blockage": null, "tunnel": null, "natural": null, "water": null, "source": null, "name:th": null, "osm_id": 7259906809, "osm_type": "nodes" }, "geometry": { "type": "Point", "coordinates": [ 99.8280034, 15.2787941 ] } },
{ "type": "Feature", "properties": { "name": null, "name:en": null, "waterway": "weir", "covered": null, "width": null, "depth": null, "layer": null, "blockage": null, "tunnel": null, "natural": null, "water": null, "source": null, "name:th": null, "osm_id": 5334577750, "osm_type": "nodes" }, "geometry": { "type": "Point", "coordinates": [ 99.7826326, 15.3163762 ] } },
{ "type": "Feature", "properties": { "name": null, "name:en": null, "waterway": "weir", "covered": null, "width": null, "depth": null, "layer": null, "blockage": null, "tunnel": null, "natural": null, "water": null, "source": "DigitalGlobe-Premium", "name:th": null, "osm_id": 3701046242, "osm_type": "nodes" }, "geometry": { "type": "Point", "coordinates": [ 99.2080966, 19.3134354 ] } },
{ "type": "Feature", "properties": { "name": "น้ำตกหมอกฟ้า", "name:en": "Mok Fa Waterfall", "waterway": "waterfall", "covered": null, "width": null, "depth": null, "layer": null, "blockage": null, "tunnel": null, "natural": null, "water": null, "source": null, "name:th": "น้ำตกหมอกฟ้า", "osm_id": 2933521303, "osm_type": "nodes" }, "geometry": { "type": "Point", "coordinates": [ 98.7710597, 19.1140873 ] } },
{ "type": "Feature", "properties": { "name": "Ao Noi  อ่าวน้อย", "name:en": null, "waterway": null, "covered": null, "width": null, "depth": null, "layer": null, "blockage": null, "tunnel": null, "natural": "bay", "water": null, "source": null, "name:th": null, "osm_id": 2645284638, "osm_type": "nodes" }, "geometry": { "type": "Point", "coordinates": [ 99.8250036, 11.8556173 ] } },
{ "type": "Feature", "properties": { "name": "Ao Prachuap Khiri Khan อ่าวประจวบคีรีขันธ์", "name:en": null, "waterway": null, "covered": null, "width": null, "depth": null, "layer": null, "blockage": null, "tunnel": null, "natural": "bay", "water": null, "source": "http://www.geonames.org/", "name:th": null, "osm_id": 2640939244, "osm_type": "nodes" }, "geometry": { "type": "Point", "coordinates": [ 99.8129169, 11.8203606 ] } },
{ "type": "Feature", "properties": { "name": "Ao Manao  อ่าวมะนาว", "name:en": null, "waterway": null, "covered": null, "width": null, "depth": null, "layer": null, "blockage": null, "tunnel": null, "natural": "bay", "water": null, "source": null, "name:th": null, "osm_id": 2640923941, "osm_type": "nodes" }, "geometry": { "type": "Point", "coordinates": [ 99.8049864, 11.7748959 ] } },
{ "type": "Feature", "properties": { "name": null, "name:en": null, "waterway": "lock_gate", "covered": null, "width": null, "depth": null, "layer": null, "blockage": null, "tunnel": null, "natural": null, "water": null, "source": null, "name:th": null, "osm_id": 485572161, "osm_type": "nodes" }, "geometry": { "type": "Point", "coordinates": [ 100.4872903, 13.6948192 ] } },
{ "type": "Feature", "properties": { "name": "นำตกธารมะยม", "name:en": "Thanmayom Waterfall", "waterway": "waterfall", "covered": null, "width": null, "depth": null, "layer": null, "blockage": null, "tunnel": null, "natural": null, "water": null, "source": "GPS;sign", "name:th": "นำตกธารมะยม", "osm_id": 3837011082, "osm_type": "nodes" }, "geometry": { "type": "Point", "coordinates": [ 102.3673375, 12.0763008 ] } },
{ "type": "Feature", "properties": { "name": null, "name:en": null, "waterway": "lock_gate", "covered": null, "width": null, "depth": null, "layer": null, "blockage": null, "tunnel": null, "natural": null, "water": null, "source": null, "name:th": null, "osm_id": 7756248397, "osm_type": "nodes" }, "geometry": { "type": "Point", "coordinates": [ 100.0087635, 13.4202846 ] } },
{ "type": "Feature", "properties": { "name": "น้ำตกทอทิพย์", "name:en": "Thor Thip Waterfall", "waterway": "waterfall", "covered": null, "width": null, "depth": null, "layer": null, "blockage": null, "tunnel": null, "natural": null, "water": null, "source": null, "name:th": "น้ำตกทอทิพย์", "osm_id": 4780171921, "osm_type": "nodes" }, "geometry": { "type": "Point", "coordinates": [ 99.3076674, 12.8490164 ] } },
{ "type": "Feature", "properties": { "name": "Khao Lan Waterfall", "name:en": null, "waterway": "waterfall", "covered": null, "width": null, "depth": null, "layer": null, "blockage": null, "tunnel": null, "natural": null, "water": null, "source": null, "name:th": null, "osm_id": 2572594607, "osm_type": "nodes" }, "geometry": { "type": "Point", "coordinates": [ 99.5621918, 11.6034367 ] } },
{ "type": "Feature", "properties": { "name": null, "name:en": null, "waterway": "lock_gate", "covered": null, "width": null, "depth": null, "layer": null, "blockage": null, "tunnel": null, "natural": null, "water": null, "source": null, "name:th": null, "osm_id": 7151817849, "osm_type": "nodes" }, "geometry": { "type": "Point", "coordinates": [ 98.7554527, 8.1120651 ] } },
{ "type": "Feature", "properties": { "name": null, "name:en": null, "waterway": "waterfall", "covered": null, "width": null, "depth": null, "layer": null, "blockage": null, "tunnel": null, "natural": null, "water": null, "source": null, "name:th": null, "osm_id": 4468605991, "osm_type": "nodes" }, "geometry": { "type": "Point", "coordinates": [ 98.4120859, 8.211626 ] } },
{ "type": "Feature", "properties": { "name": "Son Bay", "name:en": null, "waterway": null, "covered": null, "width": null, "depth": null, "layer": null, "blockage": null, "tunnel": null, "natural": "bay", "water": null, "source": null, "name:th": null, "osm_id": 2594865551, "osm_type": "nodes" }, "geometry": { "type": "Point", "coordinates": [ 98.5614547, 8.0346471 ] } },
{ "type": "Feature", "properties": { "name": "Ao Sapam", "name:en": null, "waterway": null, "covered": null, "width": null, "depth": null, "layer": null, "blockage": null, "tunnel": null, "natural": "bay", "water": null, "source": null, "name:th": null, "osm_id": 2506866213, "osm_type": "nodes" }, "geometry": { "type": "Point", "coordinates": [ 98.4122708, 7.9625269 ] } },
{ "type": "Feature", "properties": { "name": "อ่าวยาย", "name:en": "Ao Yai", "waterway": null, "covered": null, "width": null, "depth": null, "layer": null, "blockage": null, "tunnel": null, "natural": "bay", "water": null, "source": null, "name:th": "อ่าวยาย", "osm_id": 2491790099, "osm_type": "nodes" }, "geometry": { "type": "Point", "coordinates": [ 98.4441502, 9.8360428 ] } },
{ "type": "Feature", "properties": { "name": "อ่าวเล็ก", "name:en": "Ao Lek", "waterway": null, "covered": null, "width": null, "depth": null, "layer": null, "blockage": null, "tunnel": null, "natural": "bay", "water": null, "source": null, "name:th": "อ่าวเล็ก", "osm_id": 2491790096, "osm_type": "nodes" }, "geometry": { "type": "Point", "coordinates": [ 98.4520778, 9.8135165 ] } },
{ "type": "Feature", "properties": { "name": "อ่าวเสียด", "name:en": "Ao Siad", "waterway": null, "covered": null, "width": null, "depth": null, "layer": null, "blockage": null, "tunnel": null, "natural": "bay", "water": null, "source": null, "name:th": "อ่าวเสียด", "osm_id": 2491790097, "osm_type": "nodes" }, "geometry": { "type": "Point", "coordinates": [ 98.4493213, 9.7974007 ] } },
{ "type": "Feature", "properties": { "name": null, "name:en": null, "waterway": "waterfall", "covered": null, "width": null, "depth": null, "layer": null, "blockage": null, "tunnel": null, "natural": null, "water": null, "source": null, "name:th": null, "osm_id": 6296934049, "osm_type": "nodes" }, "geometry": { "type": "Point", "coordinates": [ 99.0448981, 7.5516556 ] } },
{ "type": "Feature", "properties": { "name": "Khlong Chak Waterfall", "name:en": "Khlong Chak Waterfall", "waterway": "waterfall", "covered": null, "width": null, "depth": null, "layer": null, "blockage": null, "tunnel": null, "natural": null, "water": null, "source": null, "name:th": null, "osm_id": 305442093, "osm_type": "nodes" }, "geometry": { "type": "Point", "coordinates": [ 99.0937994, 7.4999084 ] } },
{ "type": "Feature", "properties": { "name": "Tiger cave dam", "name:en": null, "waterway": "dam", "covered": null, "width": null, "depth": null, "layer": null, "blockage": null, "tunnel": null, "natural": null, "water": null, "source": null, "name:th": null, "osm_id": 4828127628, "osm_type": "nodes" }, "geometry": { "type": "Point", "coordinates": [ 99.0656338, 7.5245497 ] } },
{ "type": "Feature", "properties": { "name": null, "name:en": null, "waterway": "weir", "covered": null, "width": null, "depth": null, "layer": null, "blockage": null, "tunnel": null, "natural": null, "water": null, "source": null, "name:th": null, "osm_id": 7172343739, "osm_type": "nodes" }, "geometry": { "type": "Point", "coordinates": [ 98.4908599, 8.55148 ] } },
{ "type": "Feature", "properties": { "name": null, "name:en": null, "waterway": "weir", "covered": null, "width": null, "depth": null, "layer": null, "blockage": null, "tunnel": null, "natural": null, "water": null, "source": null, "name:th": null, "osm_id": 5169136462, "osm_type": "nodes" }, "geometry": { "type": "Point", "coordinates": [ 98.4676943, 8.6523659 ] } },
{ "type": "Feature", "properties": { "name": "อ่าวน้ำ", "name:en": "Ao Nam", "waterway": null, "covered": null, "width": null, "depth": null, "layer": null, "blockage": null, "tunnel": null, "natural": "bay", "water": null, "source": null, "name:th": null, "osm_id": 6604051074, "osm_type": "nodes" }, "geometry": { "type": "Point", "coordinates": [ 98.6362712, 8.331279 ] } },
{ "type": "Feature", "properties": { "name": "Boat ramp", "name:en": null, "waterway": "boatyard", "covered": null, "width": null, "depth": null, "layer": null, "blockage": null, "tunnel": null, "natural": null, "water": null, "source": null, "name:th": null, "osm_id": 10574055066, "osm_type": "nodes" }, "geometry": { "type": "Point", "coordinates": [ 98.3897827, 7.9676611 ] } },
{ "type": "Feature", "properties": { "name": null, "name:en": null, "waterway": "weir", "covered": null, "width": null, "depth": null, "layer": null, "blockage": null, "tunnel": null, "natural": null, "water": null, "source": null, "name:th": null, "osm_id": 281148337, "osm_type": "nodes" }, "geometry": { "type": "Point", "coordinates": [ 100.5810523, 13.7550224 ] } },
{ "type": "Feature", "properties": { "name": null, "name:en": null, "waterway": "sluice_gate", "covered": null, "width": null, "depth": null, "layer": null, "blockage": null, "tunnel": null, "natural": null, "water": null, "source": null, "name:th": null, "osm_id": 7621064814, "osm_type": "nodes" }, "geometry": { "type": "Point", "coordinates": [ 100.4680518, 13.8319526 ] } },
{ "type": "Feature", "properties": { "name": null, "name:en": "Pliu waterfall", "waterway": "waterfall", "covered": null, "width": null, "depth": null, "layer": null, "blockage": null, "tunnel": null, "natural": null, "water": null, "source": null, "name:th": null, "osm_id": 5672756621, "osm_type": "nodes" }, "geometry": { "type": "Point", "coordinates": [ 99.7619539, 8.1632741 ] } },
{ "type": "Feature", "properties": { "name": null, "name:en": null, "waterway": "weir", "covered": null, "width": null, "depth": null, "layer": null, "blockage": null, "tunnel": null, "natural": null, "water": null, "source": null, "name:th": null, "osm_id": 8109356783, "osm_type": "nodes" }, "geometry": { "type": "Point", "coordinates": [ 99.7548884, 8.1568261 ] } },
{ "type": "Feature", "properties": { "name": null, "name:en": null, "waterway": "weir", "covered": null, "width": null, "depth": null, "layer": null, "blockage": null, "tunnel": null, "natural": null, "water": null, "source": null, "name:th": null, "osm_id": 7153801525, "osm_type": "nodes" }, "geometry": { "type": "Point", "coordinates": [ 99.8503938, 8.3096414 ] } },
{ "type": "Feature", "properties": { "name": null, "name:en": null, "waterway": "weir", "covered": null, "width": null, "depth": null, "layer": null, "blockage": null, "tunnel": null, "natural": null, "water": null, "source": null, "name:th": null, "osm_id": 4888992587, "osm_type": "nodes" }, "geometry": { "type": "Point", "coordinates": [ 99.8646521, 8.391287 ] } },
{ "type": "Feature", "properties": { "name": null, "name:en": null, "waterway": "weir", "covered": null, "width": null, "depth": null, "layer": null, "blockage": null, "tunnel": null, "natural": null, "water": null, "source": null, "name:th": null, "osm_id": 7159391122, "osm_type": "nodes" }, "geometry": { "type": "Point", "coordinates": [ 99.7077084, 8.2327274 ] } },
{ "type": "Feature", "properties": { "name": null, "name:en": null, "waterway": "waterfall", "covered": null, "width": null, "depth": null, "layer": null, "blockage": null, "tunnel": null, "natural": null, "water": null, "source": null, "name:th": null, "osm_id": 3265512141, "osm_type": "nodes" }, "geometry": { "type": "Point", "coordinates": [ 98.5853042, 8.4857404 ] } },
{ "type": "Feature", "properties": { "name": null, "name:en": null, "waterway": "waterfall", "covered": null, "width": null, "depth": null, "layer": null, "blockage": null, "tunnel": null, "natural": null, "water": null, "source": null, "name:th": null, "osm_id": 5085320022, "osm_type": "nodes" }, "geometry": { "type": "Point", "coordinates": [ 100.0028804, 9.4677418 ] } },
{ "type": "Feature", "properties": { "name": "Tha Ngiew Reservior (อ่างเก็บน้ำคลองท่างิ้ว อันเนื่องมาจากพระราชดำริ", "name:en": null, "waterway": "dam", "covered": null, "width": null, "depth": null, "layer": null, "blockage": null, "tunnel": null, "natural": null, "water": null, "source": null, "name:th": null, "osm_id": 7145114466, "osm_type": "nodes" }, "geometry": { "type": "Point", "coordinates": [ 99.6926938, 7.838748 ] } },
{ "type": "Feature", "properties": { "name": null, "name:en": null, "waterway": "weir", "covered": null, "width": null, "depth": null, "layer": null, "blockage": null, "tunnel": null, "natural": null, "water": null, "source": null, "name:th": null, "osm_id": 7157161950, "osm_type": "nodes" }, "geometry": { "type": "Point", "coordinates": [ 99.6024209, 7.8124336 ] } },
{ "type": "Feature", "properties": { "name": null, "name:en": null, "waterway": "waterfall", "covered": null, "width": null, "depth": null, "layer": null, "blockage": null, "tunnel": null, "natural": null, "water": null, "source": null, "name:th": null, "osm_id": 10280712353, "osm_type": "nodes" }, "geometry": { "type": "Point", "coordinates": [ 98.32914, 7.8812771 ] } },
{ "type": "Feature", "properties": { "name": null, "name:en": null, "waterway": "waterfall", "covered": null, "width": null, "depth": null, "layer": null, "blockage": null, "tunnel": null, "natural": null, "water": null, "source": null, "name:th": null, "osm_id": 10280712354, "osm_type": "nodes" }, "geometry": { "type": "Point", "coordinates": [ 98.3292414, 7.8812924 ] } },
{ "type": "Feature", "properties": { "name": null, "name:en": null, "waterway": "waterfall", "covered": null, "width": null, "depth": null, "layer": null, "blockage": null, "tunnel": null, "natural": null, "water": null, "source": null, "name:th": null, "osm_id": 11264878651, "osm_type": "nodes" }, "geometry": { "type": "Point", "coordinates": [ 98.3329414, 7.8791349 ] } },
{ "type": "Feature", "properties": { "name": null, "name:en": null, "waterway": "waterfall", "covered": null, "width": null, "depth": null, "layer": null, "blockage": null, "tunnel": null, "natural": null, "water": null, "source": null, "name:th": null, "osm_id": 10270533792, "osm_type": "nodes" }, "geometry": { "type": "Point", "coordinates": [ 98.3383948, 7.8826282 ] } },
{ "type": "Feature", "properties": { "name": null, "name:en": null, "waterway": "weir", "covered": null, "width": null, "depth": null, "layer": null, "blockage": null, "tunnel": null, "natural": null, "water": null, "source": null, "name:th": null, "osm_id": 7166507806, "osm_type": "nodes" }, "geometry": { "type": "Point", "coordinates": [ 99.2974967, 8.062058 ] } },
{ "type": "Feature", "properties": { "name": null, "name:en": null, "waterway": "waterfall", "covered": null, "width": null, "depth": null, "layer": null, "blockage": null, "tunnel": null, "natural": null, "water": null, "source": null, "name:th": null, "osm_id": 11159316640, "osm_type": "nodes" }, "geometry": { "type": "Point", "coordinates": [ 98.3229717, 7.9339185 ] } },
{ "type": "Feature", "properties": { "name": null, "name:en": null, "waterway": "weir", "covered": null, "width": null, "depth": null, "layer": null, "blockage": null, "tunnel": null, "natural": null, "water": null, "source": null, "name:th": null, "osm_id": 7153802040, "osm_type": "nodes" }, "geometry": { "type": "Point", "coordinates": [ 99.7873914, 8.3976106 ] } },
{ "type": "Feature", "properties": { "name": "น้ำตก", "name:en": "Ton Sai Waterfall", "waterway": "waterfall", "covered": null, "width": null, "depth": null, "layer": null, "blockage": null, "tunnel": null, "natural": null, "water": null, "source": "GPS", "name:th": null, "osm_id": 1036882374, "osm_type": "nodes" }, "geometry": { "type": "Point", "coordinates": [ 98.3653337, 8.0281835 ] } },
{ "type": "Feature", "properties": { "name": "Ton Pling", "name:en": null, "waterway": "waterfall", "covered": null, "width": null, "depth": null, "layer": null, "blockage": null, "tunnel": null, "natural": null, "water": null, "source": null, "name:th": null, "osm_id": 10543152654, "osm_type": "nodes" }, "geometry": { "type": "Point", "coordinates": [ 98.2456666, 8.6154887 ] } },
{ "type": "Feature", "properties": { "name": null, "name:en": null, "waterway": "waterfall", "covered": null, "width": null, "depth": null, "layer": null, "blockage": null, "tunnel": null, "natural": null, "water": null, "source": null, "name:th": null, "osm_id": 1575877887, "osm_type": "nodes" }, "geometry": { "type": "Point", "coordinates": [ 98.2847039, 8.6542761 ] } },
{ "type": "Feature", "properties": { "name": null, "name:en": null, "waterway": "waterfall", "covered": null, "width": null, "depth": null, "layer": null, "blockage": null, "tunnel": null, "natural": null, "water": null, "source": null, "name:th": null, "osm_id": 5398031186, "osm_type": "nodes" }, "geometry": { "type": "Point", "coordinates": [ 99.7752268, 8.4479138 ] } },
{ "type": "Feature", "properties": { "name": null, "name:en": null, "waterway": "weir", "covered": null, "width": null, "depth": null, "layer": null, "blockage": null, "tunnel": null, "natural": null, "water": null, "source": null, "name:th": null, "osm_id": 7178901194, "osm_type": "nodes" }, "geometry": { "type": "Point", "coordinates": [ 99.6506149, 8.4764896 ] } },
{ "type": "Feature", "properties": { "name": "Zong Raue", "name:en": null, "waterway": "waterfall", "covered": null, "width": null, "depth": null, "layer": null, "blockage": null, "tunnel": null, "natural": null, "water": null, "source": null, "name:th": null, "osm_id": 6283593172, "osm_type": "nodes" }, "geometry": { "type": "Point", "coordinates": [ 99.9605201, 9.5458977 ] } },
{ "type": "Feature", "properties": { "name": null, "name:en": "Sai Rung Waterfall", "waterway": "waterfall", "covered": null, "width": null, "depth": null, "layer": null, "blockage": null, "tunnel": null, "natural": null, "water": null, "source": null, "name:th": null, "osm_id": 8629136525, "osm_type": "nodes" }, "geometry": { "type": "Point", "coordinates": [ 99.8147905, 7.4408816 ] } },
{ "type": "Feature", "properties": { "name": null, "name:en": null, "waterway": "weir", "covered": null, "width": null, "depth": null, "layer": null, "blockage": null, "tunnel": null, "natural": null, "water": null, "source": null, "name:th": null, "osm_id": 7356856278, "osm_type": "nodes" }, "geometry": { "type": "Point", "coordinates": [ 99.6892869, 7.409979 ] } },
{ "type": "Feature", "properties": { "name": "น้ำตกพาราไดซ์", "name:en": "Paradise Waterfall", "waterway": "waterfall", "covered": null, "width": null, "depth": null, "layer": null, "blockage": null, "tunnel": null, "natural": null, "water": null, "source": null, "name:th": null, "osm_id": 1822622272, "osm_type": "nodes" }, "geometry": { "type": "Point", "coordinates": [ 100.0102656, 9.7767577 ] } },
{ "type": "Feature", "properties": { "name": null, "name:en": "Paradise Waterfall", "waterway": "waterfall", "covered": null, "width": null, "depth": null, "layer": null, "blockage": null, "tunnel": null, "natural": null, "water": null, "source": null, "name:th": null, "osm_id": 5333102821, "osm_type": "nodes" }, "geometry": { "type": "Point", "coordinates": [ 100.0099898, 9.7768594 ] } },
{ "type": "Feature", "properties": { "name": null, "name:en": null, "waterway": "waterfall", "covered": null, "width": null, "depth": null, "layer": null, "blockage": null, "tunnel": null, "natural": null, "water": null, "source": null, "name:th": null, "osm_id": 4788045287, "osm_type": "nodes" }, "geometry": { "type": "Point", "coordinates": [ 100.0057715, 9.76806 ] } },
{ "type": "Feature", "properties": { "name": null, "name:en": null, "waterway": "weir", "covered": null, "width": null, "depth": null, "layer": null, "blockage": null, "tunnel": null, "natural": null, "water": null, "source": null, "name:th": null, "osm_id": 5338896726, "osm_type": "nodes" }, "geometry": { "type": "Point", "coordinates": [ 99.8017774, 7.4409523 ] } },
{ "type": "Feature", "properties": { "name": null, "name:en": null, "waterway": "weir", "covered": null, "width": null, "depth": null, "layer": null, "blockage": null, "tunnel": null, "natural": null, "water": null, "source": null, "name:th": null, "osm_id": 7260675368, "osm_type": "nodes" }, "geometry": { "type": "Point", "coordinates": [ 99.9646702, 7.4617702 ] } },
{ "type": "Feature", "properties": { "name": null, "name:en": null, "waterway": "weir", "covered": null, "width": null, "depth": null, "layer": null, "blockage": null, "tunnel": null, "natural": null, "water": null, "source": null, "name:th": null, "osm_id": 7261134827, "osm_type": "nodes" }, "geometry": { "type": "Point", "coordinates": [ 100.0442022, 7.5117554 ] } },
{ "type": "Feature", "properties": { "name": null, "name:en": null, "waterway": "waterfall", "covered": null, "width": null, "depth": null, "layer": null, "blockage": null, "tunnel": null, "natural": null, "water": null, "source": null, "name:th": null, "osm_id": 6243512185, "osm_type": "nodes" }, "geometry": { "type": "Point", "coordinates": [ 100.0211769, 9.7340323 ] } },
{ "type": "Feature", "properties": { "name": null, "name:en": null, "waterway": "waterfall", "covered": null, "width": null, "depth": null, "layer": null, "blockage": null, "tunnel": null, "natural": null, "water": null, "source": null, "name:th": null, "osm_id": 4784399523, "osm_type": "nodes" }, "geometry": { "type": "Point", "coordinates": [ 100.0165366, 9.7345779 ] } },
{ "type": "Feature", "properties": { "name": null, "name:en": "Kannika Waterfall", "waterway": "waterfall", "covered": null, "width": null, "depth": null, "layer": null, "blockage": null, "tunnel": null, "natural": null, "water": null, "source": null, "name:th": null, "osm_id": 5894177285, "osm_type": "nodes" }, "geometry": { "type": "Point", "coordinates": [ 100.0212568, 9.7539991 ] } },
{ "type": "Feature", "properties": { "name": "Phaeng Noi Waterfall", "name:en": "Phaeng Noi Waterfall", "waterway": "waterfall", "covered": null, "width": null, "depth": null, "layer": null, "blockage": null, "tunnel": null, "natural": null, "water": null, "source": null, "name:th": null, "osm_id": 4788641765, "osm_type": "nodes" }, "geometry": { "type": "Point", "coordinates": [ 100.0142529, 9.7348137 ] } },
{ "type": "Feature", "properties": { "name": null, "name:en": null, "waterway": "dam", "covered": null, "width": null, "depth": null, "layer": null, "blockage": null, "tunnel": null, "natural": null, "water": null, "source": null, "name:th": null, "osm_id": 4789177882, "osm_type": "nodes" }, "geometry": { "type": "Point", "coordinates": [ 100.0139274, 9.7502378 ] } },
{ "type": "Feature", "properties": { "name": "น้ำตกแพง", "name:en": "Phaeng Yai Waterfall", "waterway": "waterfall", "covered": null, "width": null, "depth": null, "layer": null, "blockage": null, "tunnel": null, "natural": null, "water": null, "source": null, "name:th": null, "osm_id": 1822525760, "osm_type": "nodes" }, "geometry": { "type": "Point", "coordinates": [ 100.0155906, 9.734669 ] } },
{ "type": "Feature", "properties": { "name": null, "name:en": null, "waterway": "waterfall", "covered": null, "width": null, "depth": null, "layer": null, "blockage": null, "tunnel": null, "natural": null, "water": null, "source": null, "name:th": null, "osm_id": 4784399522, "osm_type": "nodes" }, "geometry": { "type": "Point", "coordinates": [ 100.0182489, 9.7346639 ] } },
{ "type": "Feature", "properties": { "name": null, "name:en": "Waterfall", "waterway": "waterfall", "covered": null, "width": null, "depth": null, "layer": null, "blockage": null, "tunnel": null, "natural": null, "water": null, "source": null, "name:th": null, "osm_id": 6297757917, "osm_type": "nodes" }, "geometry": { "type": "Point", "coordinates": [ 98.2780751, 8.0443841 ] } },
{ "type": "Feature", "properties": { "name": "อ่าวกุ้ง", "name:en": "Ao Kung", "waterway": null, "covered": null, "width": null, "depth": null, "layer": null, "blockage": null, "tunnel": null, "natural": "bay", "water": null, "source": null, "name:th": "อ่าวกุ้ง", "osm_id": 2506866197, "osm_type": "nodes" }, "geometry": { "type": "Point", "coordinates": [ 98.3926295, 8.0989056 ] } },
{ "type": "Feature", "properties": { "name": "อ่าวชก", "name:en": "Ao Chok", "waterway": null, "covered": null, "width": null, "depth": null, "layer": null, "blockage": null, "tunnel": null, "natural": "bay", "water": null, "source": null, "name:th": null, "osm_id": 4810420017, "osm_type": "nodes" }, "geometry": { "type": "Point", "coordinates": [ 100.0431638, 9.7934113 ] } },
{ "type": "Feature", "properties": { "name": null, "name:en": "Wing Hin Waterfall", "waterway": "waterfall", "covered": null, "width": null, "depth": null, "layer": null, "blockage": null, "tunnel": null, "natural": null, "water": null, "source": null, "name:th": null, "osm_id": 4610187390, "osm_type": "nodes" }, "geometry": { "type": "Point", "coordinates": [ 98.5074004, 8.9111228 ] } },
{ "type": "Feature", "properties": { "name": null, "name:en": null, "waterway": "weir", "covered": null, "width": null, "depth": null, "layer": null, "blockage": null, "tunnel": null, "natural": null, "water": null, "source": null, "name:th": null, "osm_id": 8093512296, "osm_type": "nodes" }, "geometry": { "type": "Point", "coordinates": [ 99.6132275, 7.952028 ] } },
{ "type": "Feature", "properties": { "name": null, "name:en": null, "waterway": "weir", "covered": null, "width": null, "depth": null, "layer": null, "blockage": null, "tunnel": null, "natural": null, "water": null, "source": null, "name:th": null, "osm_id": 8048295998, "osm_type": "nodes" }, "geometry": { "type": "Point", "coordinates": [ 99.528923, 8.0706703 ] } },
{ "type": "Feature", "properties": { "name": null, "name:en": null, "waterway": "waterfall", "covered": null, "width": null, "depth": null, "layer": null, "blockage": null, "tunnel": null, "natural": null, "water": null, "source": null, "name:th": null, "osm_id": 11159316687, "osm_type": "nodes" }, "geometry": { "type": "Point", "coordinates": [ 98.3236251, 7.9354357 ] } },
{ "type": "Feature", "properties": { "name": null, "name:en": null, "waterway": "waterfall", "covered": null, "width": null, "depth": null, "layer": null, "blockage": null, "tunnel": null, "natural": null, "water": null, "source": null, "name:th": null, "osm_id": 10270533788, "osm_type": "nodes" }, "geometry": { "type": "Point", "coordinates": [ 98.3317841, 7.8777451 ] } },
{ "type": "Feature", "properties": { "name": null, "name:en": null, "waterway": "waterfall", "covered": null, "width": null, "depth": null, "layer": null, "blockage": null, "tunnel": null, "natural": null, "water": null, "source": null, "name:th": null, "osm_id": 10270533790, "osm_type": "nodes" }, "geometry": { "type": "Point", "coordinates": [ 98.3342046, 7.8813972 ] } },
{ "type": "Feature", "properties": { "name": "น้ำ ตก ไตน ถ้ำ", "name:en": "Ton Tham Waterfall", "waterway": "waterfall", "covered": null, "width": null, "depth": null, "layer": null, "blockage": null, "tunnel": null, "natural": null, "water": null, "source": null, "name:th": null, "osm_id": 1575878242, "osm_type": "nodes" }, "geometry": { "type": "Point", "coordinates": [ 98.3067695, 8.7413951 ] } },
{ "type": "Feature", "properties": { "name": null, "name:en": null, "waterway": "weir", "covered": null, "width": null, "depth": null, "layer": null, "blockage": null, "tunnel": null, "natural": null, "water": null, "source": null, "name:th": null, "osm_id": 7172345739, "osm_type": "nodes" }, "geometry": { "type": "Point", "coordinates": [ 98.308239, 8.5431568 ] } },
{ "type": "Feature", "properties": { "name": "Chongfa 5 lvl", "name:en": "Chong fa", "waterway": "waterfall", "covered": null, "width": null, "depth": null, "layer": null, "blockage": null, "tunnel": null, "natural": null, "water": null, "source": null, "name:th": null, "osm_id": 1575877877, "osm_type": "nodes" }, "geometry": { "type": "Point", "coordinates": [ 98.2845442, 8.6531423 ] } },
{ "type": "Feature", "properties": { "name": null, "name:en": null, "waterway": "waterfall", "covered": null, "width": null, "depth": null, "layer": null, "blockage": null, "tunnel": null, "natural": null, "water": null, "source": null, "name:th": null, "osm_id": 1575877882, "osm_type": "nodes" }, "geometry": { "type": "Point", "coordinates": [ 98.2847661, 8.6537406 ] } },
{ "type": "Feature", "properties": { "name": "Tiny lotus pond", "name:en": null, "waterway": null, "covered": null, "width": null, "depth": null, "layer": null, "blockage": null, "tunnel": null, "natural": "water", "water": "pond", "source": null, "name:th": null, "osm_id": 5517768808, "osm_type": "nodes" }, "geometry": { "type": "Point", "coordinates": [ 99.9753279, 9.7614473 ] } },
{ "type": "Feature", "properties": { "name": null, "name:en": null, "waterway": "waterfall", "covered": null, "width": null, "depth": null, "layer": null, "blockage": null, "tunnel": null, "natural": null, "water": null, "source": null, "name:th": null, "osm_id": 8147956317, "osm_type": "nodes" }, "geometry": { "type": "Point", "coordinates": [ 98.6656513, 9.8559363 ] } },
{ "type": "Feature", "properties": { "name": "Ao Yon", "name:en": null, "waterway": null, "covered": null, "width": null, "depth": null, "layer": null, "blockage": null, "tunnel": null, "natural": "bay", "water": null, "source": null, "name:th": "อ่าวยนต์", "osm_id": 2506866220, "osm_type": "nodes" }, "geometry": { "type": "Point", "coordinates": [ 98.3947745, 7.8115428 ] } },
{ "type": "Feature", "properties": { "name": "อ่าวราไวย์", "name:en": "Ao Rawai", "waterway": null, "covered": null, "width": null, "depth": null, "layer": null, "blockage": null, "tunnel": null, "natural": "bay", "water": null, "source": null, "name:th": "อ่าวราไวย์", "osm_id": 9932339804, "osm_type": "nodes" }, "geometry": { "type": "Point", "coordinates": [ 98.3254498, 7.7696859 ] } },
{ "type": "Feature", "properties": { "name": null, "name:en": "Sip et Chang", "waterway": "waterfall", "covered": null, "width": null, "depth": null, "layer": null, "blockage": null, "tunnel": null, "natural": null, "water": null, "source": null, "name:th": null, "osm_id": 1865418142, "osm_type": "nodes" }, "geometry": { "type": "Point", "coordinates": [ 98.5268861, 8.9445238 ] } },
{ "type": "Feature", "properties": { "name": null, "name:en": "Tan Sawan", "waterway": "waterfall", "covered": null, "width": null, "depth": null, "layer": null, "blockage": null, "tunnel": null, "natural": null, "water": null, "source": null, "name:th": null, "osm_id": 663663237, "osm_type": "nodes" }, "geometry": { "type": "Point", "coordinates": [ 98.4887994, 8.9057003 ] } },
{ "type": "Feature", "properties": { "name": null, "name:en": "Tiny waterfall", "waterway": "waterfall", "covered": null, "width": null, "depth": null, "layer": null, "blockage": null, "tunnel": null, "natural": null, "water": null, "source": null, "name:th": null, "osm_id": 7195069885, "osm_type": "nodes" }, "geometry": { "type": "Point", "coordinates": [ 98.4920767, 8.9069713 ] } },
{ "type": "Feature", "properties": { "name": null, "name:en": null, "waterway": "waterfall", "covered": null, "width": null, "depth": null, "layer": null, "blockage": null, "tunnel": null, "natural": null, "water": null, "source": null, "name:th": null, "osm_id": 10270533784, "osm_type": "nodes" }, "geometry": { "type": "Point", "coordinates": [ 98.3292968, 7.8771229 ] } },
{ "type": "Feature", "properties": { "name": null, "name:en": null, "waterway": "waterfall", "covered": null, "width": null, "depth": null, "layer": null, "blockage": null, "tunnel": null, "natural": null, "water": null, "source": null, "name:th": null, "osm_id": 11264945785, "osm_type": "nodes" }, "geometry": { "type": "Point", "coordinates": [ 98.3310158, 7.8774938 ] } },
{ "type": "Feature", "properties": { "name": "Ton Ao Yon Waterfall (highest fall)", "name:en": null, "waterway": "waterfall", "covered": null, "width": null, "depth": null, "layer": null, "blockage": null, "tunnel": null, "natural": null, "water": null, "source": null, "name:th": null, "osm_id": 7260153245, "osm_type": "nodes" }, "geometry": { "type": "Point", "coordinates": [ 98.3895572, 7.8221212 ] } },
{ "type": "Feature", "properties": { "name": "นํ้าตกดําหนัง", "name:en": "Tam Nang Waterfall", "waterway": "waterfall", "covered": null, "width": null, "depth": null, "layer": null, "blockage": null, "tunnel": null, "natural": "cliff", "water": null, "source": null, "name:th": null, "osm_id": 3791111181, "osm_type": "nodes" }, "geometry": { "type": "Point", "coordinates": [ 98.4720427, 8.9970053 ] } },
{ "type": "Feature", "properties": { "name": "น้ำตกโตนเด้ง", "name:en": "Ton Deng Waterfall", "waterway": "waterfall", "covered": null, "width": null, "depth": null, "layer": null, "blockage": null, "tunnel": null, "natural": null, "water": null, "source": null, "name:th": null, "osm_id": 10713444701, "osm_type": "nodes" }, "geometry": { "type": "Point", "coordinates": [ 98.4665939, 8.9916718 ] } },
{ "type": "Feature", "properties": { "name": null, "name:en": null, "waterway": "sluice_gate", "covered": null, "width": null, "depth": null, "layer": null, "blockage": null, "tunnel": null, "natural": null, "water": null, "source": null, "name:th": null, "osm_id": 3054186404, "osm_type": "nodes" }, "geometry": { "type": "Point", "coordinates": [ 99.6286714, 13.9719671 ] } },
{ "type": "Feature", "properties": { "name": null, "name:en": null, "waterway": "sluice_gate", "covered": null, "width": null, "depth": null, "layer": null, "blockage": null, "tunnel": null, "natural": null, "water": null, "source": null, "name:th": null, "osm_id": 3054186406, "osm_type": "nodes" }, "geometry": { "type": "Point", "coordinates": [ 99.6283226, 13.9720313 ] } },
{ "type": "Feature", "properties": { "name": null, "name:en": null, "waterway": "sluice_gate", "covered": null, "width": null, "depth": null, "layer": null, "blockage": null, "tunnel": null, "natural": null, "water": null, "source": null, "name:th": null, "osm_id": 3054186407, "osm_type": "nodes" }, "geometry": { "type": "Point", "coordinates": [ 99.6307774, 13.9819889 ] } },
{ "type": "Feature", "properties": { "name": null, "name:en": null, "waterway": "sluice_gate", "covered": null, "width": null, "depth": null, "layer": null, "blockage": null, "tunnel": null, "natural": null, "water": null, "source": null, "name:th": null, "osm_id": 3054186408, "osm_type": "nodes" }, "geometry": { "type": "Point", "coordinates": [ 99.6306444, 13.9820028 ] } },
{ "type": "Feature", "properties": { "name": "น้ำตกแม่เกิ๋งหลวงชั้น 3", "name:en": "Mae Koeng Waterfall Level 3", "waterway": "waterfall", "covered": null, "width": null, "depth": null, "layer": null, "blockage": null, "tunnel": null, "natural": null, "water": null, "source": null, "name:th": null, "osm_id": 9399116054, "osm_type": "nodes" }, "geometry": { "type": "Point", "coordinates": [ 99.5869321, 17.972783 ] } },
{ "type": "Feature", "properties": { "name": "น้ำตกแม่เกิ๋งหลวงชั้น 4", "name:en": "Mae Koeng Waterfall Level 4", "waterway": "waterfall", "covered": null, "width": null, "depth": null, "layer": null, "blockage": null, "tunnel": null, "natural": null, "water": null, "source": null, "name:th": null, "osm_id": 9399116083, "osm_type": "nodes" }, "geometry": { "type": "Point", "coordinates": [ 99.586841, 17.9729665 ] } },
{ "type": "Feature", "properties": { "name": "อ่าวกะตะน้อย", "name:en": "Ao Kata Noi", "waterway": null, "covered": null, "width": null, "depth": null, "layer": null, "blockage": null, "tunnel": null, "natural": "bay", "water": null, "source": null, "name:th": "อ่าวกะตะน้อย", "osm_id": 9932374953, "osm_type": "nodes" }, "geometry": { "type": "Point", "coordinates": [ 98.2896035, 7.8008979 ] } },
{ "type": "Feature", "properties": { "name": "อ่าวมุมนอก", "name:en": "Ao Mum Nok", "waterway": null, "covered": null, "width": null, "depth": null, "layer": null, "blockage": null, "tunnel": null, "natural": "bay", "water": null, "source": null, "name:th": "อ่าวมุมนอก", "osm_id": 9932374949, "osm_type": "nodes" }, "geometry": { "type": "Point", "coordinates": [ 98.2986073, 7.7720314 ] } },
{ "type": "Feature", "properties": { "name": "อ่าวป่าตอง", "name:en": "Ao Patong", "waterway": null, "covered": null, "width": null, "depth": null, "layer": null, "blockage": null, "tunnel": null, "natural": "bay", "water": null, "source": null, "name:th": null, "osm_id": 2506866203, "osm_type": "nodes" }, "geometry": { "type": "Point", "coordinates": [ 98.2871723, 7.9013947 ] } },
{ "type": "Feature", "properties": { "name": "อ่าวฉลอง", "name:en": "Ao Chalong", "waterway": null, "covered": null, "width": null, "depth": null, "layer": null, "blockage": null, "tunnel": null, "natural": "bay", "water": null, "source": null, "name:th": "อ่าวฉลอง", "osm_id": 2506866194, "osm_type": "nodes" }, "geometry": { "type": "Point", "coordinates": [ 98.3655741, 7.8110273 ] } },
{ "type": "Feature", "properties": { "name": null, "name:en": null, "waterway": "waterfall", "covered": null, "width": null, "depth": null, "layer": null, "blockage": null, "tunnel": null, "natural": null, "water": null, "source": null, "name:th": null, "osm_id": 11113150710, "osm_type": "nodes" }, "geometry": { "type": "Point", "coordinates": [ 99.2016816, 20.0690232 ] } },
{ "type": "Feature", "properties": { "name": null, "name:en": null, "waterway": "waterfall", "covered": null, "width": null, "depth": null, "layer": null, "blockage": null, "tunnel": null, "natural": null, "water": null, "source": null, "name:th": null, "osm_id": 11132279853, "osm_type": "nodes" }, "geometry": { "type": "Point", "coordinates": [ 99.2684505, 20.0626421 ] } },
{ "type": "Feature", "properties": { "name": "Sai Yok Noi Waterfall", "name:en": null, "waterway": "waterfall", "covered": null, "width": null, "depth": null, "layer": null, "blockage": null, "tunnel": null, "natural": null, "water": null, "source": null, "name:th": null, "osm_id": 11081178748, "osm_type": "nodes" }, "geometry": { "type": "Point", "coordinates": [ 99.0582973, 14.2384377 ] } },
{ "type": "Feature", "properties": { "name": null, "name:en": null, "waterway": "weir", "covered": null, "width": null, "depth": null, "layer": null, "blockage": null, "tunnel": null, "natural": null, "water": null, "source": null, "name:th": null, "osm_id": 4699870490, "osm_type": "nodes" }, "geometry": { "type": "Point", "coordinates": [ 105.0265231, 16.1199319 ] } },
{ "type": "Feature", "properties": { "name": null, "name:en": null, "waterway": "weir", "covered": null, "width": null, "depth": null, "layer": null, "blockage": null, "tunnel": null, "natural": null, "water": null, "source": null, "name:th": null, "osm_id": 7527226985, "osm_type": "nodes" }, "geometry": { "type": "Point", "coordinates": [ 102.9080576, 17.7041352 ] } },
{ "type": "Feature", "properties": { "name": null, "name:en": "Huay Na Mueang Yai Waterfall", "waterway": "waterfall", "covered": null, "width": null, "depth": null, "layer": null, "blockage": null, "tunnel": null, "natural": null, "water": null, "source": null, "name:th": null, "osm_id": 4604228139, "osm_type": "nodes" }, "geometry": { "type": "Point", "coordinates": [ 105.5962698, 15.5326358 ] } },
{ "type": "Feature", "properties": { "name": null, "name:en": null, "waterway": "weir", "covered": null, "width": null, "depth": null, "layer": null, "blockage": null, "tunnel": null, "natural": null, "water": null, "source": "Bing", "name:th": null, "osm_id": 1948938347, "osm_type": "nodes" }, "geometry": { "type": "Point", "coordinates": [ 102.7719081, 17.1119636 ] } },
{ "type": "Feature", "properties": { "name": null, "name:en": null, "waterway": "weir", "covered": null, "width": null, "depth": null, "layer": null, "blockage": null, "tunnel": null, "natural": null, "water": null, "source": "Bing", "name:th": null, "osm_id": 1948940717, "osm_type": "nodes" }, "geometry": { "type": "Point", "coordinates": [ 102.9375005, 17.1675121 ] } },
{ "type": "Feature", "properties": { "name": null, "name:en": null, "waterway": "weir", "covered": null, "width": null, "depth": null, "layer": null, "blockage": null, "tunnel": null, "natural": null, "water": null, "source": "Bing", "name:th": null, "osm_id": 1948941605, "osm_type": "nodes" }, "geometry": { "type": "Point", "coordinates": [ 102.8989582, 17.1865606 ] } },
{ "type": "Feature", "properties": { "name": null, "name:en": null, "waterway": "weir", "covered": null, "width": null, "depth": null, "layer": null, "blockage": null, "tunnel": null, "natural": null, "water": null, "source": "Bing", "name:th": null, "osm_id": 1357392850, "osm_type": "nodes" }, "geometry": { "type": "Point", "coordinates": [ 102.9426355, 17.038983 ] } },
{ "type": "Feature", "properties": { "name": "น้ำ ตก อ่างทอง", "name:en": "Ang Thong Waterfall", "waterway": "waterfall", "covered": null, "width": null, "depth": null, "layer": null, "blockage": null, "tunnel": null, "natural": null, "water": null, "source": null, "name:th": null, "osm_id": 1197806238, "osm_type": "nodes" }, "geometry": { "type": "Point", "coordinates": [ 99.4131271, 7.5527566 ] } },
{ "type": "Feature", "properties": { "name": null, "name:en": null, "waterway": "weir", "covered": null, "width": null, "depth": null, "layer": null, "blockage": null, "tunnel": null, "natural": null, "water": null, "source": null, "name:th": null, "osm_id": 7154808942, "osm_type": "nodes" }, "geometry": { "type": "Point", "coordinates": [ 99.7268754, 7.5487617 ] } },
{ "type": "Feature", "properties": { "name": null, "name:en": "Kachong Waterfall", "waterway": "waterfall", "covered": null, "width": null, "depth": null, "layer": null, "blockage": null, "tunnel": null, "natural": null, "water": null, "source": null, "name:th": null, "osm_id": 4586248191, "osm_type": "nodes" }, "geometry": { "type": "Point", "coordinates": [ 99.7869108, 7.5488144 ] } },
{ "type": "Feature", "properties": { "name": null, "name:en": null, "waterway": "weir", "covered": null, "width": null, "depth": null, "layer": null, "blockage": null, "tunnel": null, "natural": null, "water": null, "source": null, "name:th": null, "osm_id": 7167183414, "osm_type": "nodes" }, "geometry": { "type": "Point", "coordinates": [ 99.8409873, 7.6682496 ] } },
{ "type": "Feature", "properties": { "name": null, "name:en": null, "waterway": "waterfall", "covered": null, "width": null, "depth": null, "layer": null, "blockage": null, "tunnel": null, "natural": null, "water": null, "source": null, "name:th": null, "osm_id": 9578170167, "osm_type": "nodes" }, "geometry": { "type": "Point", "coordinates": [ 99.81016, 7.7036634 ] } },
{ "type": "Feature", "properties": { "name": null, "name:en": null, "waterway": "weir", "covered": null, "width": null, "depth": null, "layer": null, "blockage": null, "tunnel": null, "natural": null, "water": null, "source": null, "name:th": null, "osm_id": 10571080783, "osm_type": "nodes" }, "geometry": { "type": "Point", "coordinates": [ 104.0848374, 15.2051762 ] } },
{ "type": "Feature", "properties": { "name": "หาดหลังหลง", "name:en": "Lang Long Beach", "waterway": null, "covered": null, "width": null, "depth": null, "layer": null, "blockage": null, "tunnel": null, "natural": "bay", "water": null, "source": null, "name:th": null, "osm_id": 2432678344, "osm_type": "nodes" }, "geometry": { "type": "Point", "coordinates": [ 98.7617625, 7.7279206 ] } },
{ "type": "Feature", "properties": { "name": null, "name:en": null, "waterway": "weir", "covered": null, "width": null, "depth": null, "layer": null, "blockage": null, "tunnel": null, "natural": null, "water": null, "source": "Bing", "name:th": null, "osm_id": 1357393011, "osm_type": "nodes" }, "geometry": { "type": "Point", "coordinates": [ 103.0006197, 17.0393465 ] } },
{ "type": "Feature", "properties": { "name": "ตาดฮ้อง", "name:en": "Waterfalls", "waterway": "waterfall", "covered": null, "width": null, "depth": null, "layer": null, "blockage": null, "tunnel": null, "natural": null, "water": null, "source": null, "name:th": null, "osm_id": 5017168515, "osm_type": "nodes" }, "geometry": { "type": "Point", "coordinates": [ 101.7193258, 16.8034904 ] } },
{ "type": "Feature", "properties": { "name": null, "name:en": null, "waterway": "waterfall", "covered": null, "width": null, "depth": null, "layer": null, "blockage": null, "tunnel": null, "natural": null, "water": null, "source": null, "name:th": null, "osm_id": 10694061812, "osm_type": "nodes" }, "geometry": { "type": "Point", "coordinates": [ 101.3833112, 14.4818361 ] } },
{ "type": "Feature", "properties": { "name": "อ่าวศรีธนู", "name:en": "Ao Si Thanu", "waterway": null, "covered": null, "width": null, "depth": null, "layer": null, "blockage": null, "tunnel": null, "natural": "bay", "water": null, "source": null, "name:th": null, "osm_id": 4810420009, "osm_type": "nodes" }, "geometry": { "type": "Point", "coordinates": [ 99.9627292, 9.7533452 ] } },
{ "type": "Feature", "properties": { "name": null, "name:en": "Taa Cha Bay", "waterway": null, "covered": null, "width": null, "depth": null, "layer": null, "blockage": null, "tunnel": null, "natural": "bay", "water": null, "source": null, "name:th": null, "osm_id": 3582426710, "osm_type": "nodes" }, "geometry": { "type": "Point", "coordinates": [ 99.8312639, 10.0611023 ] } },
{ "type": "Feature", "properties": { "name": "Prau Talay", "name:en": null, "waterway": "waterfall", "covered": null, "width": null, "depth": null, "layer": null, "blockage": null, "tunnel": null, "natural": null, "water": null, "source": null, "name:th": null, "osm_id": 11256464631, "osm_type": "nodes" }, "geometry": { "type": "Point", "coordinates": [ 102.3322135, 11.9842637 ] } },
{ "type": "Feature", "properties": { "name": "Khlong Nueng", "name:en": null, "waterway": "waterfall", "covered": null, "width": null, "depth": null, "layer": null, "blockage": null, "tunnel": null, "natural": null, "water": null, "source": null, "name:th": "น้ำตกคลองหนึ่ง", "osm_id": 11256391534, "osm_type": "nodes" }, "geometry": { "type": "Point", "coordinates": [ 102.3566844, 12.0172721 ] } },
{ "type": "Feature", "properties": { "name": null, "name:en": null, "waterway": "weir", "covered": null, "width": null, "depth": null, "layer": null, "blockage": null, "tunnel": null, "natural": null, "water": null, "source": null, "name:th": null, "osm_id": 7090066423, "osm_type": "nodes" }, "geometry": { "type": "Point", "coordinates": [ 99.8081615, 17.3747541 ] } },
{ "type": "Feature", "properties": { "name": null, "name:en": null, "waterway": "weir", "covered": null, "width": null, "depth": null, "layer": null, "blockage": null, "tunnel": null, "natural": null, "water": null, "source": null, "name:th": null, "osm_id": 5045872980, "osm_type": "nodes" }, "geometry": { "type": "Point", "coordinates": [ 101.5837289, 14.16568 ] } },
{ "type": "Feature", "properties": { "name": null, "name:en": null, "waterway": "weir", "covered": null, "width": null, "depth": null, "layer": null, "blockage": null, "tunnel": null, "natural": null, "water": null, "source": null, "name:th": null, "osm_id": 2505856982, "osm_type": "nodes" }, "geometry": { "type": "Point", "coordinates": [ 99.8421809, 14.0765893 ] } },
{ "type": "Feature", "properties": { "name": null, "name:en": "Pu Khang waterfall 8. step", "waterway": "waterfall", "covered": null, "width": null, "depth": null, "layer": null, "blockage": null, "tunnel": null, "natural": null, "water": null, "source": null, "name:th": null, "osm_id": 10608285306, "osm_type": "nodes" }, "geometry": { "type": "Point", "coordinates": [ 99.6915011, 19.4422946 ] } },
{ "type": "Feature", "properties": { "name": null, "name:en": "Pu Khang waterfall 9. step", "waterway": "waterfall", "covered": null, "width": null, "depth": null, "layer": null, "blockage": null, "tunnel": null, "natural": null, "water": null, "source": null, "name:th": null, "osm_id": 10608285311, "osm_type": "nodes" }, "geometry": { "type": "Point", "coordinates": [ 99.6908236, 19.4421852 ] } },
{ "type": "Feature", "properties": { "name": null, "name:en": "Pu Khang waterfall 1. step", "waterway": "waterfall", "covered": null, "width": null, "depth": null, "layer": null, "blockage": null, "tunnel": null, "natural": null, "water": null, "source": null, "name:th": null, "osm_id": 10608274013, "osm_type": "nodes" }, "geometry": { "type": "Point", "coordinates": [ 99.6964577, 19.4421981 ] } },
{ "type": "Feature", "properties": { "name": null, "name:en": "Pu Khang waterfall 2. step", "waterway": "waterfall", "covered": null, "width": null, "depth": null, "layer": null, "blockage": null, "tunnel": null, "natural": null, "water": null, "source": null, "name:th": null, "osm_id": 10608274016, "osm_type": "nodes" }, "geometry": { "type": "Point", "coordinates": [ 99.6955618, 19.4421726 ] } },
{ "type": "Feature", "properties": { "name": null, "name:en": "Pu Khang waterfall 4. step", "waterway": "waterfall", "covered": null, "width": null, "depth": null, "layer": null, "blockage": null, "tunnel": null, "natural": null, "water": null, "source": null, "name:th": null, "osm_id": 10608274020, "osm_type": "nodes" }, "geometry": { "type": "Point", "coordinates": [ 99.6938636, 19.442489 ] } },
{ "type": "Feature", "properties": { "name": null, "name:en": "Pu Khang waterfall 6. step", "waterway": "waterfall", "covered": null, "width": null, "depth": null, "layer": null, "blockage": null, "tunnel": null, "natural": null, "water": null, "source": null, "name:th": null, "osm_id": 10608274023, "osm_type": "nodes" }, "geometry": { "type": "Point", "coordinates": [ 99.6930534, 19.4420726 ] } },
{ "type": "Feature", "properties": { "name": null, "name:en": "Pu Khang waterfall 7. step", "waterway": "waterfall", "covered": null, "width": null, "depth": null, "layer": null, "blockage": null, "tunnel": null, "natural": null, "water": null, "source": null, "name:th": null, "osm_id": 10608274025, "osm_type": "nodes" }, "geometry": { "type": "Point", "coordinates": [ 99.6927093, 19.4419588 ] } },
{ "type": "Feature", "properties": { "name": null, "name:en": null, "waterway": "waterfall", "covered": null, "width": null, "depth": null, "layer": null, "blockage": null, "tunnel": null, "natural": null, "water": null, "source": null, "name:th": null, "osm_id": 437110168, "osm_type": "nodes" }, "geometry": { "type": "Point", "coordinates": [ 100.7942251, 16.8758832 ] } },
{ "type": "Feature", "properties": { "name": "น้ำตกธารสวรรค์", "name:en": "Than Sawan waterfall", "waterway": "waterfall", "covered": null, "width": null, "depth": null, "layer": null, "blockage": null, "tunnel": null, "natural": null, "water": null, "source": null, "name:th": null, "osm_id": 3467831299, "osm_type": "nodes" }, "geometry": { "type": "Point", "coordinates": [ 101.7754545, 16.8829191 ] } },
{ "type": "Feature", "properties": { "name": null, "name:en": null, "waterway": "weir", "covered": null, "width": null, "depth": null, "layer": null, "blockage": null, "tunnel": null, "natural": null, "water": null, "source": "Bing", "name:th": null, "osm_id": 1363295421, "osm_type": "nodes" }, "geometry": { "type": "Point", "coordinates": [ 102.8299663, 15.9755599 ] } },
{ "type": "Feature", "properties": { "name": null, "name:en": null, "waterway": "weir", "covered": null, "width": null, "depth": null, "layer": null, "blockage": null, "tunnel": null, "natural": null, "water": null, "source": "Bing", "name:th": null, "osm_id": 1363295499, "osm_type": "nodes" }, "geometry": { "type": "Point", "coordinates": [ 102.8328341, 15.9869219 ] } },
{ "type": "Feature", "properties": { "name": null, "name:en": null, "waterway": "weir", "covered": null, "width": null, "depth": null, "layer": null, "blockage": null, "tunnel": null, "natural": null, "water": null, "source": "Bing", "name:th": null, "osm_id": 1363295536, "osm_type": "nodes" }, "geometry": { "type": "Point", "coordinates": [ 102.8337207, 15.9940604 ] } },
{ "type": "Feature", "properties": { "name": null, "name:en": null, "waterway": "weir", "covered": null, "width": null, "depth": null, "layer": null, "blockage": null, "tunnel": null, "natural": null, "water": null, "source": "Bing", "name:th": null, "osm_id": 1363988201, "osm_type": "nodes" }, "geometry": { "type": "Point", "coordinates": [ 102.6736005, 15.8183676 ] } },
{ "type": "Feature", "properties": { "name": "น้ำตกไทรทอง", "name:en": "Sai Thong Waterfall", "waterway": "waterfall", "covered": null, "width": null, "depth": null, "layer": null, "blockage": null, "tunnel": null, "natural": null, "water": null, "source": null, "name:th": null, "osm_id": 9593946975, "osm_type": "nodes" }, "geometry": { "type": "Point", "coordinates": [ 101.5064761, 15.8801225 ] } },
{ "type": "Feature", "properties": { "name": null, "name:en": null, "waterway": "waterfall", "covered": null, "width": null, "depth": null, "layer": null, "blockage": null, "tunnel": null, "natural": null, "water": null, "source": null, "name:th": null, "osm_id": 11186247365, "osm_type": "nodes" }, "geometry": { "type": "Point", "coordinates": [ 101.0145753, 19.3089175 ] } },
{ "type": "Feature", "properties": { "name": null, "name:en": null, "waterway": "waterfall", "covered": null, "width": null, "depth": null, "layer": null, "blockage": null, "tunnel": null, "natural": null, "water": null, "source": null, "name:th": null, "osm_id": 11186247368, "osm_type": "nodes" }, "geometry": { "type": "Point", "coordinates": [ 101.0138533, 19.3091586 ] } },
{ "type": "Feature", "properties": { "name": null, "name:en": null, "waterway": "weir", "covered": null, "width": null, "depth": null, "layer": null, "blockage": null, "tunnel": null, "natural": null, "water": null, "source": null, "name:th": null, "osm_id": 6112113138, "osm_type": "nodes" }, "geometry": { "type": "Point", "coordinates": [ 100.8517992, 15.7202602 ] } },
{ "type": "Feature", "properties": { "name": null, "name:en": "Tat Ton waterfall", "waterway": "waterfall", "covered": null, "width": null, "depth": null, "layer": null, "blockage": null, "tunnel": null, "natural": null, "water": null, "source": null, "name:th": null, "osm_id": 1932473536, "osm_type": "nodes" }, "geometry": { "type": "Point", "coordinates": [ 102.0406164, 15.9840633 ] } },
{ "type": "Feature", "properties": { "name": null, "name:en": null, "waterway": "dam", "covered": null, "width": null, "depth": null, "layer": null, "blockage": null, "tunnel": null, "natural": null, "water": null, "source": null, "name:th": null, "osm_id": 2116518308, "osm_type": "nodes" }, "geometry": { "type": "Point", "coordinates": [ 103.0568101, 14.5500702 ] } },
{ "type": "Feature", "properties": { "name": "น้ำตกเหวสุวัต", "name:en": "Haew Suwat Waterfall", "waterway": "waterfall", "covered": null, "width": null, "depth": null, "layer": null, "blockage": null, "tunnel": null, "natural": null, "water": null, "source": null, "name:th": "น้ำตกเหวสุวัต", "osm_id": 1195421011, "osm_type": "nodes" }, "geometry": { "type": "Point", "coordinates": [ 101.4141262, 14.4354773 ] } },
{ "type": "Feature", "properties": { "name": "น้ำตกกล้วยไม้", "name:en": "Pha Kluai Mai Waterfall", "waterway": "waterfall", "covered": null, "width": null, "depth": null, "layer": null, "blockage": null, "tunnel": null, "natural": null, "water": null, "source": "GNS", "name:th": null, "osm_id": 5697435031, "osm_type": "nodes" }, "geometry": { "type": "Point", "coordinates": [ 101.4061284, 14.427694 ] } },
{ "type": "Feature", "properties": { "name": null, "name:en": null, "waterway": "waterfall", "covered": null, "width": null, "depth": null, "layer": null, "blockage": null, "tunnel": null, "natural": null, "water": null, "source": null, "name:th": null, "osm_id": 5697435206, "osm_type": "nodes" }, "geometry": { "type": "Point", "coordinates": [ 101.4154828, 14.4444748 ] } },
{ "type": "Feature", "properties": { "name": null, "name:en": null, "waterway": "waterfall", "covered": null, "width": null, "depth": null, "layer": null, "blockage": null, "tunnel": null, "natural": null, "water": null, "source": null, "name:th": null, "osm_id": 6187073685, "osm_type": "nodes" }, "geometry": { "type": "Point", "coordinates": [ 101.4135908, 14.4386771 ] } },
{ "type": "Feature", "properties": { "name": null, "name:en": null, "waterway": "weir", "covered": null, "width": null, "depth": null, "layer": null, "blockage": null, "tunnel": null, "natural": null, "water": null, "source": "Bing", "name:th": null, "osm_id": 1363987819, "osm_type": "nodes" }, "geometry": { "type": "Point", "coordinates": [ 102.6989868, 15.7646936 ] } },
{ "type": "Feature", "properties": { "name": null, "name:en": null, "waterway": "weir", "covered": null, "width": null, "depth": null, "layer": null, "blockage": null, "tunnel": null, "natural": null, "water": null, "source": "Bing", "name:th": null, "osm_id": 1363988002, "osm_type": "nodes" }, "geometry": { "type": "Point", "coordinates": [ 102.6822027, 15.7804885 ] } },
{ "type": "Feature", "properties": { "name": null, "name:en": null, "waterway": "weir", "covered": null, "width": null, "depth": null, "layer": null, "blockage": null, "tunnel": null, "natural": null, "water": null, "source": null, "name:th": null, "osm_id": 7324775658, "osm_type": "nodes" }, "geometry": { "type": "Point", "coordinates": [ 102.9191012, 14.4582856 ] } },
{ "type": "Feature", "properties": { "name": null, "name:en": null, "waterway": "weir", "covered": null, "width": null, "depth": null, "layer": null, "blockage": null, "tunnel": null, "natural": null, "water": null, "source": null, "name:th": null, "osm_id": 5739061348, "osm_type": "nodes" }, "geometry": { "type": "Point", "coordinates": [ 104.088624, 15.132968 ] } },
{ "type": "Feature", "properties": { "name": null, "name:en": null, "waterway": "weir", "covered": null, "width": null, "depth": null, "layer": null, "blockage": null, "tunnel": null, "natural": null, "water": null, "source": null, "name:th": null, "osm_id": 7457765962, "osm_type": "nodes" }, "geometry": { "type": "Point", "coordinates": [ 102.7372575, 15.9727522 ] } },
{ "type": "Feature", "properties": { "name": null, "name:en": null, "waterway": "weir", "covered": null, "width": null, "depth": null, "layer": null, "blockage": null, "tunnel": null, "natural": null, "water": null, "source": null, "name:th": null, "osm_id": 7458084381, "osm_type": "nodes" }, "geometry": { "type": "Point", "coordinates": [ 102.7289982, 15.9267815 ] } },
{ "type": "Feature", "properties": { "name": null, "name:en": null, "waterway": "weir", "covered": null, "width": null, "depth": null, "layer": null, "blockage": null, "tunnel": null, "natural": null, "water": null, "source": null, "name:th": null, "osm_id": 1363243003, "osm_type": "nodes" }, "geometry": { "type": "Point", "coordinates": [ 102.7488142, 15.8812556 ] } },
{ "type": "Feature", "properties": { "name": null, "name:en": null, "waterway": "weir", "covered": null, "width": null, "depth": null, "layer": null, "blockage": null, "tunnel": null, "natural": null, "water": null, "source": "Bing", "name:th": null, "osm_id": 1707921126, "osm_type": "nodes" }, "geometry": { "type": "Point", "coordinates": [ 102.7128139, 15.8051711 ] } },
{ "type": "Feature", "properties": { "name": null, "name:en": null, "waterway": "weir", "covered": null, "width": null, "depth": null, "layer": null, "blockage": null, "tunnel": null, "natural": null, "water": null, "source": "Bing", "name:th": null, "osm_id": 1707921368, "osm_type": "nodes" }, "geometry": { "type": "Point", "coordinates": [ 102.7060688, 15.8225935 ] } },
{ "type": "Feature", "properties": { "name": null, "name:en": null, "waterway": "weir", "covered": null, "width": null, "depth": null, "layer": null, "blockage": null, "tunnel": null, "natural": null, "water": null, "source": "Bing", "name:th": null, "osm_id": 1707921476, "osm_type": "nodes" }, "geometry": { "type": "Point", "coordinates": [ 102.7284532, 15.8321064 ] } },
{ "type": "Feature", "properties": { "name": null, "name:en": null, "waterway": "weir", "covered": null, "width": null, "depth": null, "layer": null, "blockage": null, "tunnel": null, "natural": null, "water": null, "source": "Bing", "name:th": null, "osm_id": 1707921568, "osm_type": "nodes" }, "geometry": { "type": "Point", "coordinates": [ 102.7292968, 15.8392229 ] } },
{ "type": "Feature", "properties": { "name": null, "name:en": null, "waterway": "weir", "covered": null, "width": null, "depth": null, "layer": null, "blockage": null, "tunnel": null, "natural": null, "water": null, "source": null, "name:th": null, "osm_id": 1363242728, "osm_type": "nodes" }, "geometry": { "type": "Point", "coordinates": [ 102.7312739, 15.8109134 ] } },
{ "type": "Feature", "properties": { "name": null, "name:en": null, "waterway": "weir", "covered": null, "width": null, "depth": null, "layer": null, "blockage": null, "tunnel": null, "natural": null, "water": null, "source": null, "name:th": null, "osm_id": 1363242833, "osm_type": "nodes" }, "geometry": { "type": "Point", "coordinates": [ 102.7498825, 15.8379643 ] } },
{ "type": "Feature", "properties": { "name": null, "name:en": null, "waterway": "weir", "covered": null, "width": null, "depth": null, "layer": null, "blockage": null, "tunnel": null, "natural": null, "water": null, "source": null, "name:th": null, "osm_id": 1363242918, "osm_type": "nodes" }, "geometry": { "type": "Point", "coordinates": [ 102.7682703, 15.869132 ] } },
{ "type": "Feature", "properties": { "name": null, "name:en": null, "waterway": null, "covered": null, "width": null, "depth": null, "layer": null, "blockage": null, "tunnel": null, "natural": "water", "water": "reservoir", "source": null, "name:th": null, "osm_id": 5323479673, "osm_type": "nodes" }, "geometry": { "type": "Point", "coordinates": [ 101.2673691, 15.6979258 ] } },
{ "type": "Feature", "properties": { "name": null, "name:en": null, "waterway": "weir", "covered": null, "width": null, "depth": null, "layer": null, "blockage": null, "tunnel": null, "natural": null, "water": null, "source": null, "name:th": null, "osm_id": 1408250878, "osm_type": "nodes" }, "geometry": { "type": "Point", "coordinates": [ 101.0452669, 15.8071094 ] } },
{ "type": "Feature", "properties": { "name": null, "name:en": null, "waterway": "weir", "covered": null, "width": null, "depth": null, "layer": null, "blockage": null, "tunnel": null, "natural": null, "water": null, "source": null, "name:th": null, "osm_id": 7891126806, "osm_type": "nodes" }, "geometry": { "type": "Point", "coordinates": [ 101.0251826, 15.5966796 ] } },
{ "type": "Feature", "properties": { "name": null, "name:en": "Wang Muean Waterfall", "waterway": "waterfall", "covered": null, "width": null, "depth": null, "layer": "1", "blockage": null, "tunnel": null, "natural": null, "water": null, "source": null, "name:th": null, "osm_id": 475490483, "osm_type": "nodes" }, "geometry": { "type": "Point", "coordinates": [ 101.343525, 14.2406269 ] } },
{ "type": "Feature", "properties": { "name": null, "name:en": null, "waterway": "weir", "covered": null, "width": null, "depth": null, "layer": null, "blockage": null, "tunnel": null, "natural": null, "water": null, "source": null, "name:th": null, "osm_id": 477131545, "osm_type": "nodes" }, "geometry": { "type": "Point", "coordinates": [ 101.2938477, 14.2502262 ] } },
{ "type": "Feature", "properties": { "name": "Saovabha Phongsri Sluice", "name:en": null, "waterway": "sluice_gate", "covered": null, "width": null, "depth": null, "layer": null, "blockage": null, "tunnel": null, "natural": null, "water": null, "source": null, "name:th": "ประตูน้ำเสาวภาผ่องศรี", "osm_id": 11081107720, "osm_type": "nodes" }, "geometry": { "type": "Point", "coordinates": [ 101.0004331, 14.1227141 ] } },
{ "type": "Feature", "properties": { "name": "น้ำตกเหวนรก", "name:en": "Haew Narok Waterfall", "waterway": "waterfall", "covered": null, "width": null, "depth": null, "layer": null, "blockage": null, "tunnel": null, "natural": null, "water": null, "source": null, "name:th": "น้ำตกเหวนรก", "osm_id": 2678596386, "osm_type": "nodes" }, "geometry": { "type": "Point", "coordinates": [ 101.3881569, 14.2896768 ] } },
{ "type": "Feature", "properties": { "name": null, "name:en": null, "waterway": "weir", "covered": null, "width": null, "depth": null, "layer": null, "blockage": null, "tunnel": null, "natural": null, "water": null, "source": null, "name:th": null, "osm_id": 8074633606, "osm_type": "nodes" }, "geometry": { "type": "Point", "coordinates": [ 101.0651344, 14.1847144 ] } },
{ "type": "Feature", "properties": { "name": null, "name:en": null, "waterway": "weir", "covered": null, "width": null, "depth": null, "layer": null, "blockage": null, "tunnel": null, "natural": null, "water": null, "source": "Bing", "name:th": null, "osm_id": 1404071454, "osm_type": "nodes" }, "geometry": { "type": "Point", "coordinates": [ 101.1204619, 15.9328602 ] } },
{ "type": "Feature", "properties": { "name": "น้ำตกเจ็ดคต คตที่ 1", "name:en": "Jed kot water fall 1st level", "waterway": "waterfall", "covered": null, "width": null, "depth": null, "layer": null, "blockage": null, "tunnel": null, "natural": null, "water": null, "source": null, "name:th": null, "osm_id": 5568405121, "osm_type": "nodes" }, "geometry": { "type": "Point", "coordinates": [ 101.1690608, 14.481878 ] } },
{ "type": "Feature", "properties": { "name": "น้ำตกเหวตาสา", "name:en": null, "waterway": "waterfall", "covered": null, "width": null, "depth": null, "layer": null, "blockage": null, "tunnel": null, "natural": null, "water": null, "source": null, "name:th": null, "osm_id": 10073349009, "osm_type": "nodes" }, "geometry": { "type": "Point", "coordinates": [ 101.1122874, 14.4863399 ] } },
{ "type": "Feature", "properties": { "name": null, "name:en": null, "waterway": "waterfall", "covered": null, "width": null, "depth": null, "layer": null, "blockage": null, "tunnel": null, "natural": null, "water": null, "source": null, "name:th": null, "osm_id": 2511826434, "osm_type": "nodes" }, "geometry": { "type": "Point", "coordinates": [ 101.1873933, 14.7105382 ] } },
{ "type": "Feature", "properties": { "name": null, "name:en": null, "waterway": "waterfall", "covered": null, "width": null, "depth": null, "layer": null, "blockage": null, "tunnel": null, "natural": null, "water": null, "source": null, "name:th": null, "osm_id": 2511826554, "osm_type": "nodes" }, "geometry": { "type": "Point", "coordinates": [ 101.1868829, 14.724771 ] } },
{ "type": "Feature", "properties": { "name": null, "name:en": null, "waterway": "weir", "covered": null, "width": null, "depth": null, "layer": null, "blockage": null, "tunnel": null, "natural": null, "water": null, "source": null, "name:th": null, "osm_id": 7891131040, "osm_type": "nodes" }, "geometry": { "type": "Point", "coordinates": [ 101.0486519, 15.5766544 ] } },
{ "type": "Feature", "properties": { "name": null, "name:en": null, "waterway": "weir", "covered": null, "width": null, "depth": null, "layer": null, "blockage": null, "tunnel": null, "natural": null, "water": null, "source": "Bing", "name:th": null, "osm_id": 1408249809, "osm_type": "nodes" }, "geometry": { "type": "Point", "coordinates": [ 101.0997049, 15.6547368 ] } },
{ "type": "Feature", "properties": { "name": null, "name:en": null, "waterway": "weir", "covered": null, "width": null, "depth": null, "layer": null, "blockage": null, "tunnel": null, "natural": null, "water": null, "source": "Bing", "name:th": null, "osm_id": 1408250050, "osm_type": "nodes" }, "geometry": { "type": "Point", "coordinates": [ 101.0854617, 15.6793929 ] } },
{ "type": "Feature", "properties": { "name": null, "name:en": null, "waterway": "weir", "covered": null, "width": null, "depth": null, "layer": null, "blockage": null, "tunnel": null, "natural": null, "water": null, "source": "Bing", "name:th": null, "osm_id": 1408250602, "osm_type": "nodes" }, "geometry": { "type": "Point", "coordinates": [ 101.0719497, 15.7152593 ] } },
{ "type": "Feature", "properties": { "name": null, "name:en": null, "waterway": "weir", "covered": null, "width": null, "depth": null, "layer": null, "blockage": null, "tunnel": null, "natural": null, "water": null, "source": "Bing", "name:th": null, "osm_id": 1408250649, "osm_type": "nodes" }, "geometry": { "type": "Point", "coordinates": [ 101.0689319, 15.7159061 ] } },
{ "type": "Feature", "properties": { "name": null, "name:en": null, "waterway": "weir", "covered": null, "width": null, "depth": null, "layer": null, "blockage": null, "tunnel": null, "natural": null, "water": null, "source": "Bing", "name:th": null, "osm_id": 1357393423, "osm_type": "nodes" }, "geometry": { "type": "Point", "coordinates": [ 102.9467427, 17.0417299 ] } },
{ "type": "Feature", "properties": { "name": null, "name:en": null, "waterway": "weir", "covered": null, "width": null, "depth": null, "layer": null, "blockage": null, "tunnel": null, "natural": null, "water": null, "source": "Bing", "name:th": null, "osm_id": 1948939312, "osm_type": "nodes" }, "geometry": { "type": "Point", "coordinates": [ 102.7854939, 17.1212375 ] } },
{ "type": "Feature", "properties": { "name": null, "name:en": "Rup Sadet Waterfall", "waterway": "waterfall", "covered": null, "width": null, "depth": null, "layer": null, "blockage": null, "tunnel": null, "natural": null, "water": null, "source": null, "name:th": null, "osm_id": 3070034246, "osm_type": "nodes" }, "geometry": { "type": "Point", "coordinates": [ 98.9206936, 18.8017931 ] } },
{ "type": "Feature", "properties": { "name": "น้ำตกแม่เย็น", "name:en": "Mae Yen Waterfall", "waterway": "waterfall", "covered": null, "width": null, "depth": null, "layer": null, "blockage": null, "tunnel": null, "natural": null, "water": null, "source": null, "name:th": null, "osm_id": 9702413946, "osm_type": "nodes" }, "geometry": { "type": "Point", "coordinates": [ 98.506579, 19.3670014 ] } },
{ "type": "Feature", "properties": { "name": "น้ำตกคลองวังเจ้า", "name:en": "Nam Tok Khlong Wang Chao", "waterway": "waterfall", "covered": null, "width": null, "depth": null, "layer": null, "blockage": null, "tunnel": null, "natural": null, "water": null, "source": null, "name:th": null, "osm_id": 11368021556, "osm_type": "nodes" }, "geometry": { "type": "Point", "coordinates": [ 99.158718, 16.5029714 ] } },